,Municipality,Place Name,Suburb,Latitude,Longitude,Sports Played,Number of Field Courts,Field Surface Type,Facility Condition,Changerooms,Address,Facility Name,Categories,Historical Information,Url
0,Yarra City Council,Citizenâs Park Oval and Jack Dyer Pavilion,Richmond,-37.817218,145.000351,Athletics,1.0,Grass Running Track,2. Poor,"Female, Male, Umpire/Officials",Gleadell Street Richmond 3121,,"['Yarra City Council', 'Richmond', 'Sports', 'Athletics']",,
1,Yarra City Council,George Knott Athletics Track and Ray Coverdale Pavilion,Clifton Hill,-37.784205,145.002319,Athletics,1.0,Synthetic Running Track,4. Good,"Female, Male",Heidelberg Road Clifton Hill 3068,,"['Yarra City Council', 'Clifton Hill', 'Sports', 'Athletics']",,
2,Yarra City Council,Alfred Crescent Oval and Pavilion,Fitzroy,-37.78753,144.982377,Australian Rules Football,1.0,Grass,4. Good,"Umpire/Officials, Unisex",Brunswick Street Fitzroy 3065,,"['Yarra City Council', 'Fitzroy', 'Sports', 'Football']",,
3,Yarra City Council,Alphington Park Oval and Pavilion,Alphington,-37.783779,145.029131,Australian Rules Football,1.0,Grass,4. Good,"Umpire/Officials, Unisex",Parkview Road Alphington 3067,,"['Yarra City Council', 'Alphington', 'Sports', 'Football']",,
4,Yarra City Council,Loughan Oval and Johnson Pavilion,Burnley,-37.828576,145.020462,Australian Rules Football,1.0,Grass,3. Average,"Umpire/Officials, Unisex",Swan Street Burnley 3121,,"['Yarra City Council', 'Burnley', 'Sports', 'Football']",,
5,Yarra City Council,Ramsden Street Oval and Pavilion,Fairfield,-37.789873,145.00311100000000,Australian Rules Football,1.0,Grass,2. Poor,,Ramsden Street Fairfield 3078,,"['Yarra City Council', 'Fairfield', 'Sports', 'Football']",,
6,Yarra City Council,Victoria Park,Abbotsford,-37.79858,144.996607,Australian Rules Football,1.0,Grass,4. Good,"Male, Umpire/Officials",Turner Street Abbotsford 3067,,"['Yarra City Council', 'Abbotsford', 'Sports', 'Football']",,
7,Yarra City Council,W T Peterson Oval & Edinburgh Gardens Change Rooms,Fitzroy,-37.78753,144.982377,Australian Rules Football,1.0,Grass,4. Good,"Umpire/Officials, Unisex",Brunswick Street Fitzroy 3065,,"['Yarra City Council', 'Fitzroy', 'Sports', 'Football']",,
8,Yarra City Council,Collingwood Secondary College,Collingwood,-37.803256,144.98903,Basketball,2.0,Wooden Gymnasium,3. Average,,Mc Cutcheon Way Collingwood,,"['Yarra City Council', 'Collingwood', 'Sports', 'Basketball']",,
9,Yarra City Council,Fitzroy Secondary  School,Fitzroy,-37.800909,144.979157,Basketball,1.0,Wooden Gymnasium,,,Falconer Street Fitzroy,,"['Yarra City Council', 'Fitzroy', 'Sports', 'Basketball']",,
10,Yarra City Council,Melbourne Girls College,Burnley,-37.82969,145.012699,Basketball,2.0,Wooden Gymnasium,,,Yarra Boulevard Burnley,,"['Yarra City Council', 'Burnley', 'Sports', 'Basketball']",,
11,Yarra City Council,Princes Hill Seconary College,Princes Hill,-37.781818,144.966587,Basketball,1.0,Wooden Gymnasium,,,Arnold Strret Princes Hill,,"['Yarra City Council', 'Princes Hill', 'Sports', 'Basketball']",,
12,Yarra City Council,Edinburgh Gardens Bocce Courts,Fitzroy,-37.78753,144.982377,Bocce,1.0,,,,Brunswick Street Fitzroy 3065,,"['Yarra City Council', 'Fitzroy', 'Sports']",,
13,Yarra City Council,Hardy Gallagher Reserve Bocce Courts,Princess Hill,-37.779197,144.967058,Bocce,3.0,,,,Park Street Princess Hill 3054,,"['Yarra City Council', 'Princess Hill', 'Sports']",,
14,Yarra City Council,Melbourne Aboriginal Sport and Recreation Gym,Fitzroy,-37.805467,144.974449,Boxing,,,3. Average,,Gertrude Street Fitzroy,,"['Yarra City Council', 'Fitzroy', 'Sports', 'Boxing']",,
15,Yarra City Council,Richmond Boxing Club,Richmond,-37.81838,145.001525,Boxing,,,2. Poor,"Female, Male",Gleadell Street Richmond,,"['Yarra City Council', 'Richmond', 'Sports', 'Boxing']",,
16,Yarra City Council,Stanton Street Hall,Collingwood,-37.801956,144.98816400000000,Boxing,,,4. Good,,Stanton Street Collingwood,,"['Yarra City Council', 'Collingwood', 'Sports', 'Boxing']",,
17,Yarra City Council,Richmond Recreation Centre,Richmond,-37.817688,145.002381,Canoe Polo,,,,,Gleadell Street Richmond 3121,,"['Yarra City Council', 'Richmond', 'Sports', 'Polo']",,
18,Yarra City Council,Fairfield Canoe Club,Fairfield,-37.785639,145.01875900000000,Canoeing,,,,,"Fairfield Canoe Club, The Esplanade, Fairfield, City of Yarra, Victoria, 3078, Australia",,"['Yarra City Council', 'Fairfield', 'Sports', 'Canoeing']",,
19,Yarra City Council,Alan Bain Reserve and Pavilion,Cremorne,-37.830218,145.001134,Cricket,1.0,Synthetic Pitch,4. Good,"Umpire/Officials, Unisex",Church Street Cremorne 3121,,"['Yarra City Council', 'Cremorne', 'Sports', 'Cricket']",,
20,Yarra City Council,Burnley Park Oval and OâConnell Pavilion,Burnley,-37.826103,145.01414500000000,Cricket,1.0,Synthetic Pitch,4. Good,"Umpire/Officials, Unisex",Park Grove Burnley 3121,,"['Yarra City Council', 'Burnley', 'Sports', 'Cricket']",,
21,Yarra City Council,Corben Oval,Abbotsford,-37.795643,145.00771800000000,Cricket,1.0,Turf Pitch,2. Poor,Male,Yarra Bend Road Abbotsford 3067,,"['Yarra City Council', 'Abbotsford', 'Sports', 'Cricket']",,
22,Yarra City Council,Fairfield Park Oval and Maxwell Sutherland Pavilion,Fairfield,-37.785738,145.009954,Cricket,1.0,Synthetic Pitch,2. Poor,"Male, Umpire/Officials",Yarra Bend Road Fairfield 3078,,"['Yarra City Council', 'Fairfield', 'Sports', 'Cricket']",,
23,Yarra City Council,Fairlea Ovals,Fairfield,-37.795643,145.00771800000000,Cricket,2.0,Synthetic Pitch,1. Very Poor,Male,Yarra Bend Road Fairfield 3078,,"['Yarra City Council', 'Fairfield', 'Sports', 'Cricket']",,
24,Yarra City Council,Fletcher 1 and 2 Soccer Pitches and Graham Pavilion,Burnley,-37.828576,145.020462,Cricket,1.0,Synthetic Pitch,3. Average,"Male, Umpire/Officials",Swan Street Burnley 3121,,"['Yarra City Council', 'Burnley', 'Sports', 'Cricket']",,
25,Yarra City Council,Mc Cutcheon Oval,Fairfield,-37.799975,145.008575,Cricket,1.0,Turf Pitch,,,Yarra Bend Road Fairfield,,"['Yarra City Council', 'Fairfield', 'Sports', 'Cricket']",,
26,Yarra City Council,Sir Herbert Olney Oval,Abbotsford,-37.795643,145.00771800000000,Cricket,1.0,Turf Pitch,2. Poor,"Male, Umpire/Officials",Yarra Bend Road Abbotsford 3067,,"['Yarra City Council', 'Abbotsford', 'Sports', 'Cricket']",,
27,Yarra City Council,W J COX,Fairfield,-37.799975,145.008575,Cricket,1.0,Synthetic Pitch,1. Very Poor,Male,Yarra Bend Road Fairfield,,"['Yarra City Council', 'Fairfield', 'Sports', 'Cricket']",,
28,Yarra City Council,Westfield Ovals,Fairfield,-37.795643,145.00771800000000,Cricket,1.0,Concrete Pitch,,,Yarra Bend Road Fairfield 3078,,"['Yarra City Council', 'Fairfield', 'Sports', 'Cricket']",,
29,Yarra City Council,WT Long Oval,Abbotsford,-37.795643,145.00771800000000,Cricket,1.0,Turf Pitch,,,Yarra Bend Road Abbotsford 3067,,"['Yarra City Council', 'Abbotsford', 'Sports', 'Cricket']",,
30,Yarra City Council,All Seasons Personal Fitness,Richmond,-37.817479,144.99123900000000,Fitness / Gymnasium Workouts,,,,,41 Bridge Road Richmond 3121,,"['Yarra City Council', 'Richmond', 'Sports', 'Gymnasium']",,
31,Yarra City Council,Andrew Baxter Body Concepts Studio,Richmond,-37.826115,144.990736,Fitness / Gymnasium Workouts,,,,,30 Cremorne Street Richmond 3121,,"['Yarra City Council', 'Richmond', 'Sports', 'Gymnasium']",,
32,Yarra City Council,Anytime Fitness Alphington,Alphington,-37.780993,145.031394,Fitness / Gymnasium Workouts,,,,,738 Heidelberg Road Alphington 3067,,"['Yarra City Council', 'Alphington', 'Sports', 'Gymnasium']",,
33,Yarra City Council,Anytime Fitness Richmond,Richmond,-37.820398,145.003818,Fitness / Gymnasium Workouts,,,,,8/53 Coppin Street Richmond 3121,,"['Yarra City Council', 'Richmond', 'Sports', 'Gymnasium']",,
34,Yarra City Council,Australian Institute of Fitness,Richmond,-37.824922,144.998156,Fitness / Gymnasium Workouts,1.0,,,,405 Church Street Richmond 3121,,"['Yarra City Council', 'Richmond', 'Sports', 'Gymnasium']",,
35,Yarra City Council,Balance & Control Pilates Studio,Richmond,-37.811511,145.007549,Fitness / Gymnasium Workouts,,,,,474 Victoria Street Richmond 3121,,"['Yarra City Council', 'Richmond', 'Sports', 'Gymnasium']",,
36,Yarra City Council,Collingwood Housing Estate Gymnasium,Collingwood,-37.80287,144.992863,Fitness / Gymnasium Workouts,1.0,,3. Average,,Hoddle Street Collingwood 3066,,"['Yarra City Council', 'Collingwood', 'Sports', 'Gymnasium']",,
37,Yarra City Council,Collingwood Leisure Centre,Clifton Hill,-37.787996,144.994351,Fitness / Gymnasium Workouts,1.0,,5. Very Good,"Female, Male, Unisex",Turnbull Street Clifton Hill 3068,,"['Yarra City Council', 'Clifton Hill', 'Sports', 'Gymnasium']",,
38,Yarra City Council,CrossFit Richmond,Richmond,-37.818162,145.00958,Fitness / Gymnasium Workouts,1.0,,,,116 Murphy Street Richmond 3121,,"['Yarra City Council', 'Richmond', 'Sports', 'Gymnasium']",,
39,Yarra City Council,CrossFit Victoria,Fitzroy,-37.79594,144.97753,Fitness / Gymnasium Workouts,1.0,,,,62 Rose Street Fitzroy 3065,,"['Yarra City Council', 'Fitzroy', 'Sports', 'Gymnasium']",,
40,Yarra City Council,CrossFit Victoria,Fitzroy,-37.795964,144.977608,Fitness / Gymnasium Workouts,,,,,2/62 Rose Street Fitzroy 3065,,"['Yarra City Council', 'Fitzroy', 'Sports', 'Gymnasium']",,
41,Yarra City Council,Curves North Fitzroy,Fitzroy North,-37.78209,144.985022,Fitness / Gymnasium Workouts,,,,,278 St. Georges Road Fitzroy North 3068,,"['Yarra City Council', 'Fitzroy North', 'Sports', 'Gymnasium']",,
42,Yarra City Council,Fitness 24 Hours,Fitzroy,-37.79809,144.97921500000000,Fitness / Gymnasium Workouts,,,,,133 Johnston Street Fitzroy 3065,,"['Yarra City Council', 'Fitzroy', 'Sports', 'Gymnasium']",,
43,Yarra City Council,Fitness First,Richmond,-37.82937,144.9964,Fitness / Gymnasium Workouts,1.0,,,,560 Church Street Richmond 3121,,"['Yarra City Council', 'Richmond', 'Sports', 'Gymnasium']",,
44,Yarra City Council,Fitness Live,Richmond,-37.820335,145.00245800000000,Fitness / Gymnasium Workouts,,,,,4 Stephenson Street Richmond 3121,,"['Yarra City Council', 'Richmond', 'Sports', 'Gymnasium']",,
45,Yarra City Council,Fitness Ring Studio,Richmond,-37.809937,144.994548,Fitness / Gymnasium Workouts,,,,,488 Victoria Street Richmond 3121,,"['Yarra City Council', 'Richmond', 'Sports', 'Gymnasium']",,
46,Yarra City Council,fitness Xplosion,Fitzroy North,-37.791351,144.976277,Fitness / Gymnasium Workouts,,,,,St. Georges Road Fitzroy North 3068,,"['Yarra City Council', 'Fitzroy North', 'Sports', 'Gymnasium']",,
47,Yarra City Council,FITROCk,Richmond,-37.824629,144.988844,Fitness / Gymnasium Workouts,1.0,,,,358 Swan Street Richmond 3121,,"['Yarra City Council', 'Richmond', 'Sports', 'Gymnasium']",,
48,Yarra City Council,Fitzroy Pilates Studios,Fitzroy,-37.802202,144.977592,Fitness / Gymnasium Workouts,,,,,175 Brunswick Street Fitzroy 3065,,"['Yarra City Council', 'Fitzroy', 'Sports', 'Gymnasium']",,
49,Yarra City Council,Fitzroy Swimming Pool,Fitzroy,-37.7939,144.9809,Fitness / Gymnasium Workouts,,,3. Average,"Female, Male",Alexandra Parade Fitzroy 3065,,"['Yarra City Council', 'Fitzroy', 'Sports', 'Gymnasium']",,
50,Yarra City Council,Genesis Richmond,Richmond,-37.82723,145.019798,Fitness / Gymnasium Workouts,1.0,,,,576 Swan Street Richmond 3121,,"['Yarra City Council', 'Richmond', 'Sports', 'Gymnasium']",,
51,Yarra City Council,Healthy Fit,Fitzroy North,-37.784533,144.982525,Fitness / Gymnasium Workouts,,,,,191 St. Georges Road Fitzroy North 3068,,"['Yarra City Council', 'Fitzroy North', 'Sports', 'Gymnasium']",,
52,Yarra City Council,Hunts Fitness Centre,Fitzroy,-37.79807,144.975969,Fitness / Gymnasium Workouts,,,,,41 Johnston Street Fitzroy 3065,,"['Yarra City Council', 'Fitzroy', 'Sports', 'Gymnasium']",,
53,Yarra City Council,Hunts Squash & Fitness Centre,Fitzroy,-37.79807,144.975969,Fitness / Gymnasium Workouts,1.0,,,,41 Johnston Street Fitzroy 3065,,"['Yarra City Council', 'Fitzroy', 'Sports', 'Gymnasium']",,
54,Yarra City Council,Hurl's Fitness,Clifton Hill,-37.789497,144.989794,Fitness / Gymnasium Workouts,1.0,,,,107 Queens Parade Clifton Hill 3068,,"['Yarra City Council', 'Clifton Hill', 'Sports', 'Gymnasium']",,
55,Yarra City Council,Mind and Body,Fitzroy,-37.79807,144.975969,Fitness / Gymnasium Workouts,,,,,81 Johnston Street Fitzroy 3065,,"['Yarra City Council', 'Fitzroy', 'Sports', 'Gymnasium']",,
56,Yarra City Council,Muscle & Body Shape Gym,Richmond,-37.823773,144.992693,Fitness / Gymnasium Workouts,1.0,,,,25 Wangaratta Street Richmond 3121,,"['Yarra City Council', 'Richmond', 'Sports', 'Gymnasium']",,
57,Yarra City Council,Pisces Speacilised Fitness,Richmond,-37.817527,144.991455,Fitness / Gymnasium Workouts,1.0,,,,45 Bridge Road Richmond 3121,,"['Yarra City Council', 'Richmond', 'Sports', 'Gymnasium']",,
58,Yarra City Council,Positive Edge Personal Training,Fitzroy,-37.793324,144.97821000000000,Fitness / Gymnasium Workouts,,,,,83 Alexandra Parade Fitzroy 3065,,"['Yarra City Council', 'Fitzroy', 'Sports', 'Gymnasium']",,
59,Yarra City Council,Richmond  studio and Aerial Divas,Richmond,-37.834325,144.996591,Fitness / Gymnasium Workouts,,,,,252 Church Street Richmond 3121,,"['Yarra City Council', 'Richmond', 'Sports', 'Gymnasium']",,
60,Yarra City Council,Richmond Recreation Centre,Richmond,-37.817218,145.000351,Fitness / Gymnasium Workouts,1.0,,4. Good,,Gleadell Street Richmond 3121,,"['Yarra City Council', 'Richmond', 'Sports', 'Gymnasium']",,
61,Yarra City Council,Simon's Personal Training Studio,Fitzroy,-37.804574,144.977401,Fitness / Gymnasium Workouts,,,,,621 Brunswick Street Fitzroy 3065,,"['Yarra City Council', 'Fitzroy', 'Sports', 'Gymnasium']",,
62,Yarra City Council,Skulpt Personal Training Richmond Personal Training,Richmond,-37.81816,145.012396,Fitness / Gymnasium Workouts,,,,,103 Murphy Street Richmond 3121,,"['Yarra City Council', 'Richmond', 'Sports', 'Gymnasium']",,
63,Yarra City Council,Space Health Club,Richmond,-37.809937,144.994548,Fitness / Gymnasium Workouts,,,,,620 Victoria Street Richmond 3121,,"['Yarra City Council', 'Richmond', 'Sports', 'Gymnasium']",,
64,Yarra City Council,Srpt Elysium Health & Lifestyle,Richmond,-37.81928900000000,145.00405,Fitness / Gymnasium Workouts,,,,,374 Bridge Road Richmond 3121,,"['Yarra City Council', 'Richmond', 'Sports', 'Gymnasium']",,
65,Yarra City Council,The Spin Room,Fitzroy North,-37.782247,144.97800000000000,Fitness / Gymnasium Workouts,,,,,732 Nicholson Street Fitzroy North 3068,,"['Yarra City Council', 'Fitzroy North', 'Sports', 'Gymnasium']",,
66,Yarra City Council,Time 4 Fitness,Fitzroy,-37.79807,144.975969,Fitness / Gymnasium Workouts,1.0,,,,135 Johnston Street Fitzroy 3065,,"['Yarra City Council', 'Fitzroy', 'Sports', 'Gymnasium']",,
67,Yarra City Council,Unique Fitness Studio,Richmond,-37.82548900000000,144.996172,Fitness / Gymnasium Workouts,,,,,33 Waverley Street Richmond 3121,,"['Yarra City Council', 'Richmond', 'Sports', 'Gymnasium']",,
68,Yarra City Council,Vibes Fitness,Fitzroy,-37.795572,144.979799,Fitness / Gymnasium Workouts,,,,,106 Leicester Street Fitzroy 3065,,"['Yarra City Council', 'Fitzroy', 'Sports', 'Gymnasium']",,
69,Yarra City Council,Vigor Health & Fitness,Fitzroy,-37.797612,144.98429300000000,Fitness / Gymnasium Workouts,1.0,,,,393 Smith Street Fitzroy 3065,,"['Yarra City Council', 'Fitzroy', 'Sports', 'Gymnasium']",,
70,Yarra City Council,Zap Fitness Richmond,Richmond,-37.819201,145.007592,Fitness / Gymnasium Workouts,,,,,509-511 Bridge Road Richmond 3121,,"['Yarra City Council', 'Richmond', 'Sports', 'Gymnasium']",,
71,Yarra City Council,Burnley Golf Course,Burnley,-37.828576,145.020462,Golf,1.0,9 Hole Course - Public,4. Good,"Female, Male",Swan Street Burnley 3121,,"['Yarra City Council', 'Burnley', 'Sports', 'Golf']",,
72,Yarra City Council,Latrobe Golf Course,Fairfield,-37.786367,145.034196,Golf,1.0,18 Hole Course - Private,,,Farm Road Fairfield 3078,,"['Yarra City Council', 'Fairfield', 'Sports', 'Golf']",,
73,Yarra City Council,Yarra Bend Golf Course,Abbotsford,-37.795643,145.00771800000000,Golf,1.0,18 Hole Course - Public,4. Good,Unisex,Yarra Bend Road Abbotsford 3067,,"['Yarra City Council', 'Abbotsford', 'Sports', 'Golf']",,
74,Yarra City Council,Alphington Bowls Club,Alphington,-37.783779,145.029131,Lawn Bowls,2.0,Grass,3. Average,,Parkview Road Alphington 3067,,"['Yarra City Council', 'Alphington', 'Sports']",,
75,Yarra City Council,Fitzroy Victoria Bowls and Sports Club,Fitzroy,-37.78753,144.982377,Lawn Bowls,2.0,Synthetic Pitch,4. Good,,Brunswick Street Fitzroy 3065,,"['Yarra City Council', 'Fitzroy', 'Sports']",,
76,Yarra City Council,Richmond Union Bowling Club,Richmond,-37.817218,145.000351,Lawn Bowls,2.0,Grass,4. Good,,Gleadell Street Richmond 3121,,"['Yarra City Council', 'Richmond', 'Sports']",,
77,Yarra City Council,Aiki No Michi Aikido,Fitzroy,-37.79807,144.975969,Martial Arts,,,,,207 Johnston Street Fitzroy 3065,,"['Yarra City Council', 'Fitzroy', 'Sports', 'Martial Arts']",,
78,Yarra City Council,Australian Kung Fu Acadamy,Collingwood,-37.80872700000000,144.98258700000000,Martial Arts,,,,,478 Smith Street Collingwood 3066,,"['Yarra City Council', 'Collingwood', 'Sports', 'Martial Arts']",,
79,Yarra City Council,Dominance Mixed Martial Arts,Richmond,-37.809937,144.994548,Martial Arts,,,,,555 Victoria Street Richmond 3121,,"['Yarra City Council', 'Richmond', 'Sports', 'Martial Arts']",,
80,Yarra City Council,Field Aikido Centre,Fitzroy,-37.797968,144.983715,Martial Arts,,,,,214 Kerr Street Fitzroy 3065,,"['Yarra City Council', 'Fitzroy', 'Sports', 'Martial Arts']",,
81,Yarra City Council,Inner City Systema,Fitzroy,-37.807708,144.98155400000000,Martial Arts,,,,,310 Gore Street Fitzroy 3065,,"['Yarra City Council', 'Fitzroy', 'Sports', 'Martial Arts']",,
82,Yarra City Council,Seido-Juku Karate,Richmond,-37.824629,144.988844,Martial Arts,,,,,439 Swan Street Richmond 3121,,"['Yarra City Council', 'Richmond', 'Sports', 'Martial Arts']",,
83,Yarra City Council,Wing Chun Kung Fu Jee Shin,Abbotsford,-37.805707,144.99234200000000,Martial Arts,,,,,96 Hoddle Street Abbotsford 3067,,"['Yarra City Council', 'Abbotsford', 'Sports', 'Martial Arts']",,
84,Yarra City Council,Mayorâs Park Tennis Courts and Clubhouse,Clifton Hill,-37.787996,144.994351,Netball,2.0,Synthetic,4. Good,"Female, Male",Hoddle Street Clifton Hill 3068,,"['Yarra City Council', 'Clifton Hill', 'Sports', 'Netball']",,
85,Yarra City Council,Richmond Community Courts,Richmond,-37.817218,145.000351,Netball,2.0,Synthetic,3. Average,"Female, Male",Gleadell Street Richmond 3121,,"['Yarra City Council', 'Richmond', 'Sports', 'Netball']",,
86,Yarra City Council,Ryanâs Reserve Netball and Tennis Facility and Pavilion,Burnley,-37.82731,145.00995600000000,Netball,4.0,Plexipave,3. Average,"Female, Male",Swan Street Burnley 3121,,"['Yarra City Council', 'Burnley', 'Sports', 'Netball']",,
87,Yarra City Council,Edinburgh Gardens Skate Bowl,Fitzroy North,-37.78661500000000,144.983024,Skating,1.0,,3. Average,,St Georges Road Fitzroy North 3068,,"['Yarra City Council', 'Fitzroy North', 'Sports', 'Skating']",,
88,Yarra City Council,Quarries Park Skate Facility,Fairfield,-37.790643,145.004188,Skating,1.0,,,,Heidelberg Road Fairfield 3078,,"['Yarra City Council', 'Fairfield', 'Sports', 'Skating']",,
89,Yarra City Council,Atherton Gardens Reserve,Fitzroy,-37.80331500000000,144.979067,Soccer,1.0,Grass,,,Napier Street Fitzroy 3065,,"['Yarra City Council', 'Fitzroy', 'Sports', 'Soccer']",,
90,Yarra City Council,Bastow 1 and 2 Soccer Pitches and Gillon Pavilion,Burnley,-37.828576,145.020462,Soccer,2.0,Grass,3. Average,"Male, Umpire/Officials",Swan Street Burnley 3121,,"['Yarra City Council', 'Burnley', 'Sports', 'Soccer']",,
91,Yarra City Council,Coulson Reserve and Pavilion Soccer Pitch and Pavilion,Clifton Hill,-37.786385,144.99672900000000,Soccer,1.0,Grass,3. Average,"Male, Umpire/Officials",Queens Parade Clifton Hill 3068,,"['Yarra City Council', 'Clifton Hill', 'Sports', 'Soccer']",,
92,Yarra City Council,Walker Street Soccer Pitch,Fairfield,-37.789873,145.00311100000000,Soccer,1.0,Grass,,,Walker Street Fairfield 3078,,"['Yarra City Council', 'Fairfield', 'Sports', 'Soccer']",,
93,Yarra City Council,Yambla Reserve and Pavilion,Fairfield,-37.789873,145.00311100000000,Soccer,1.0,Grass,3. Average,"Male, Umpire/Officials",Walker Street Fairfield 3078,,"['Yarra City Council', 'Fairfield', 'Sports', 'Soccer']",,
94,Yarra City Council,Melbourne Royal Tennis,Richmond,-37.818473,144.990382,Tennis (Indoor),,,,,18 Sherwood Street Richmond 3121,,"['Yarra City Council', 'Richmond', 'Sports', 'Tennis']",,
95,Yarra City Council,Fitzroy Tennis Courts and Clubhouse,Fitzroy,-37.78753,144.982377,Tennis (Outdoor),6.0,Clay,3. Average,"Female, Male",Brunswick Street Fitzroy 3065,,"['Yarra City Council', 'Fitzroy', 'Sports', 'Tennis']",,
96,Moonee Valley City Council,Anytime Fitness Moonee Ponds,Moonee Ponds,-37.765377,144.92349100000000,Aerobics,,,,,683 Mount Alexander Road Moonee Ponds 3039,,"['Moonee Valley City Council', 'Moonee Ponds', 'Sports', 'Aerobics']",,
97,Moonee Valley City Council,Ascot Vale Leisure Centre,Ascot Vale,-37.779307,144.912165,Aerobics,,,4. Good,"Female, Male, Unisex",178 Epsom Road Ascot Vale 3032,,"['Moonee Valley City Council', 'Ascot Vale', 'Sports', 'Aerobics']",,
98,Moonee Valley City Council,BTB Martials Arts & Fitness Centre,Keilor East,-37.732911,144.8675,Aerobics,,,,,54a Wingara Avenue Keilor East 3033,,"['Moonee Valley City Council', 'Keilor East', 'Sports', 'Aerobics']",,
99,Moonee Valley City Council,Contours Express Niddrie,Niddrie,-37.73692,144.89281,Aerobics,,,,,2/8 Treadwell Road Niddrie 3042,,"['Moonee Valley City Council', 'Niddrie', 'Sports', 'Aerobics']",,
100,Moonee Valley City Council,Contours Keilor East,Keilor East,-37.74818,144.861839,Aerobics,,,,,34 Amis Crescent Keilor East 3033,,"['Moonee Valley City Council', 'Keilor East', 'Sports', 'Aerobics']",,
101,Moonee Valley City Council,Contours Moonee Ponds,Moonee Ponds,-37.767,144.9235,Aerobics,,,,,39 Puckle Street Moonee Ponds 3039,,"['Moonee Valley City Council', 'Moonee Ponds', 'Sports', 'Aerobics']",,
102,Moonee Valley City Council,Curves Keilor East,Keilor East,-37.733,144.8675,Aerobics,,,,,44 Wingara Avenue Keilor East 3033,,"['Moonee Valley City Council', 'Keilor East', 'Sports', 'Aerobics']",,
103,Moonee Valley City Council,East Keilor Leisure Centre,East Keilor,-37.738815,144.870789,Aerobics,,,2. Poor,"Female, Male, Unisex",84 Quinn Grove East Keilor 3033,,"['Moonee Valley City Council', 'East Keilor', 'Sports', 'Aerobics']",,
104,Moonee Valley City Council,Fernwood Moonee Ponds,Ascot Vale,-37.7765,144.9285,Aerobics,,,,,3 North Street Ascot Vale 3032,,"['Moonee Valley City Council', 'Ascot Vale', 'Sports', 'Aerobics']",,
105,Moonee Valley City Council,Fighting Lyons Taekwondo Health & Fitness Centre,North Essendon,-37.74299600000000,144.906,Aerobics,,,,,70 Keilor Road North Essendon 3041,,"['Moonee Valley City Council', 'North Essendon', 'Sports', 'Aerobics']",,
106,Moonee Valley City Council,Fitness First Essendon,Essendon,-37.7455,144.92600000000000,Aerobics,,,,,299-311 Pascoe Vale Road Essendon 3040,,"['Moonee Valley City Council', 'Essendon', 'Sports', 'Aerobics']",,
107,Moonee Valley City Council,Full Fitness Personal Training,Moonee Ponds,-37.766,144.922,Aerobics,,,,,3 Everage Street Moonee Ponds 3039,,"['Moonee Valley City Council', 'Moonee Ponds', 'Sports', 'Aerobics']",,
108,Moonee Valley City Council,Paramount Health & Fitness Centre,Ascot Vale,-37.775665,144.91557,Aerobics,,,,,142 Union Road Ascot Vale 3032,,"['Moonee Valley City Council', 'Ascot Vale', 'Sports', 'Aerobics']",,
109,Moonee Valley City Council,Re-Creation Health Club Essendon,Essendon,-37.755754,144.90200000000000,Aerobics,,,,,275 Buckley Street Essendon 3040,,"['Moonee Valley City Council', 'Essendon', 'Sports', 'Aerobics']",,
110,Moonee Valley City Council,Spark Fitness,Moonee Ponds,-37.77,144.904,Aerobics,,,,,284a Maribyrnong Road Moonee Ponds 3039,,"['Moonee Valley City Council', 'Moonee Ponds', 'Sports', 'Aerobics']",,
111,Moonee Valley City Council,Windy Hill Fitness Centre,Essendon,-37.752527,144.918666,Aerobics,,,,,74-84 Napier Street Essendon 3040,,"['Moonee Valley City Council', 'Essendon', 'Sports', 'Aerobics']",,
112,Moonee Valley City Council,Aberfeldie Athletic Track,Moonee Ponds,-37.762596,144.901511,Athletics,1.0,Synthetic Running Track,4. Good,"Female, Male",Corio Street Moonee Ponds 3039,,"['Moonee Valley City Council', 'Moonee Ponds', 'Sports', 'Athletics']",,
113,Moonee Valley City Council,Aberfeldie Park,Moonee Ponds,-37.763571,144.89985900000000,Australian Rules Football,2.0,Grass,2. Poor,"Female, Male, Umpire/Officials",2-50 Park Crescent Moonee Ponds 3039,,"['Moonee Valley City Council', 'Moonee Ponds', 'Sports', 'Football']",,
114,Moonee Valley City Council,Boeing Reserve,Strathmore Heights,-37.715468,144.900555,Australian Rules Football,1.0,Grass,4. Good,Unisex,Boeing Road Strathmore Heights 3041,,"['Moonee Valley City Council', 'Strathmore Heights', 'Sports', 'Football']",,
115,Moonee Valley City Council,Buckley Park,Essendon,-37.744173,144.896594,Australian Rules Football,2.0,Grass,3. Average,Unisex,Cooper Street Essendon 3040,,"['Moonee Valley City Council', 'Essendon', 'Sports', 'Football']",,
116,Moonee Valley City Council,Canning Reserve,Avondale Heights,-37.768483,144.870675,Australian Rules Football,1.0,Grass,4. Good,Unisex,2 Canning Street Avondale Heights 3034,,"['Moonee Valley City Council', 'Avondale Heights', 'Sports', 'Football']",,
117,Moonee Valley City Council,Clifton Park,Aberfeldie,-37.755988,144.891501,Australian Rules Football,1.0,Grass,3. Average,Unisex,7 Batman Street Aberfeldie 3040,,"['Moonee Valley City Council', 'Aberfeldie', 'Sports', 'Football']",,
118,Moonee Valley City Council,Essendon Cricket Ground,Essendon,-37.751978,144.919345,Australian Rules Football,1.0,Grass,4. Good,Unisex,35 Brewster Street Essendon 3040,,"['Moonee Valley City Council', 'Essendon', 'Sports', 'Football']",,
119,Moonee Valley City Council,Etzel Reserve,Airport West,-37.722084,144.875968,Australian Rules Football,1.0,Grass,3. Average,Unisex,29 Etzel Street Airport West 3042,,"['Moonee Valley City Council', 'Airport West', 'Sports', 'Football']",,
120,Moonee Valley City Council,Hansen Reserve,Airport West,-37.72357,144.878141,Australian Rules Football,1.0,Grass,3. Average,Male,27 Etzel Street Airport West 3042,,"['Moonee Valley City Council', 'Airport West', 'Sports', 'Football']",,
121,Moonee Valley City Council,Lebanon Reserve,Strathmore,-37.727606,144.921249,Australian Rules Football,1.0,Grass,2. Poor,Male,10 Mascoma Street Strathmore 3041,,"['Moonee Valley City Council', 'Strathmore', 'Sports', 'Football']",,
122,Moonee Valley City Council,Maribyrnong Park,Moonee Ponds,-37.766676,144.904086,Australian Rules Football,2.0,Grass,4. Good,Unisex,189 Holmes Road Moonee Ponds 3039,,"['Moonee Valley City Council', 'Moonee Ponds', 'Sports', 'Football']",,
123,Moonee Valley City Council,Ormond Park,Moonee Ponds,-37.771863,144.935225,Australian Rules Football,1.0,Grass,4. Good,Male,2a Pattinson Street Moonee Ponds 3039,,"['Moonee Valley City Council', 'Moonee Ponds', 'Sports', 'Football']",,
124,Moonee Valley City Council,Overland Reserve,Keilor East,-37.743552,144.85726200000000,Australian Rules Football,3.0,Grass,3. Average,Male,7a Parkside Avenue Keilor East 3033,,"['Moonee Valley City Council', 'Keilor East', 'Sports', 'Football']",,
125,Moonee Valley City Council,Walter Street Reserve,Ascot Vale,-37.776707,144.907981,Australian Rules Football,1.0,Grass,4. Good,Unisex,110 Walter Street Ascot Vale 3032,,"['Moonee Valley City Council', 'Ascot Vale', 'Sports', 'Football']",,
126,Moonee Valley City Council,Doutta Galla Ladies Badminton Club (Doutta Galla Youth Hall),North Essendon,-37.738961,144.902638,Badminton,1.0,,3. Average,"Female, Male",Corner Kerferd & McCulloch Street North Essendon 3041,,"['Moonee Valley City Council', 'North Essendon', 'Sports', 'Badminton']",,
127,Moonee Valley City Council,Essendon Christ Church Badminton Club,Essendon,-37.756772,144.913693,Badminton,,,,,Corner Buckley Street & Mt Alexander Road Essendon 3040,,"['Moonee Valley City Council', 'Essendon', 'Sports', 'Badminton']",,
128,Moonee Valley City Council,AJ Davis Reserve,Niddrie,-37.729161,144.87355,Cricket,1.0,Synthetic Pitch,3. Average,Unisex,300-320 Fullarton Road Niddrie 3042,,"['Moonee Valley City Council', 'Niddrie', 'Sports', 'Cricket']",,
129,Moonee Valley City Council,Debney Park,Flemington,-37.785636,144.937395,Cricket,1.0,Synthetic Pitch,4. Good,Unisex,25 Mount Alexander Road Flemington 3031,,"['Moonee Valley City Council', 'Flemington', 'Sports', 'Cricket']",,
130,Moonee Valley City Council,Doyle Reserve (Avondale Heights Reserve),Avondale Heights,-37.76268,144.858666,Cricket,1.0,Synthetic Pitch,4. Good,Unisex,Doyle Street Avondale Heights 3034,,"['Moonee Valley City Council', 'Avondale Heights', 'Sports', 'Cricket']",,
131,Moonee Valley City Council,Fairbairn Park,Ascot Vale,-37.774044,144.897979,Cricket,8.0,Synthetic Pitch,2. Poor,Unisex,Woods Street Ascot Vale 3032,,"['Moonee Valley City Council', 'Ascot Vale', 'Sports', 'Cricket']",,
132,Moonee Valley City Council,Strathnaver Reserve,Strathmore Heights,-37.718403,144.90944300000000,Cricket,1.0,Synthetic Pitch,1. Very Poor,Male,1 Boeing Road Strathmore Heights 3041,,"['Moonee Valley City Council', 'Strathmore Heights', 'Sports', 'Cricket']",,
133,Moonee Valley City Council,Doutta Galla Yoga Studio,Ascot Vale,-37.775445,144.928761,Fitness / Gymnasium Workouts,,,,,1A Warrick Street Ascot Vale 3032,,"['Moonee Valley City Council', 'Ascot Vale', 'Sports', 'Gymnasium']",,
134,Moonee Valley City Council,Listen To Your Body - Moonee Ponds,Moonee Ponds,-37.765069,144.919971,Fitness / Gymnasium Workouts,,,,,2/38 Margaret Street Moonee Ponds 3039,,"['Moonee Valley City Council', 'Moonee Ponds', 'Sports', 'Gymnasium']",,
135,Moonee Valley City Council,Natural Muscle,Ascot Vale,-37.774717,144.92804100000000,Fitness / Gymnasium Workouts,,,,,393 Mount Alexander Road Ascot Vale 3032,,"['Moonee Valley City Council', 'Ascot Vale', 'Sports', 'Gymnasium']",,
136,Moonee Valley City Council,Riverside Golf and Tennis Centre,Ascot Vale,-37.776768,144.90096600000000,Golf,1.0,9 Hole Course - Public,4. Good,"Female, Male",75 Newsom Street Ascot Vale 3032,,"['Moonee Valley City Council', 'Ascot Vale', 'Sports', 'Golf']",,
137,Moonee Valley City Council,Essendon Keilor Gym Academy,Airport West,-37.728272,144.865872,Gymnastics,,,,,196 Roberts Road Airport West 3042,,"['Moonee Valley City Council', 'Airport West', 'Sports', 'Gymnastics']",,
138,Moonee Valley City Council,Niddrie Gymnastic Club,Essendon,-37.749804,144.910919,Gymnastics,,,,,44 Wirraway Road Essendon 3041,,"['Moonee Valley City Council', 'Essendon', 'Sports', 'Gymnastics']",,
139,Moonee Valley City Council,YMCA Moonee Valley,Essendon,-37.746211,144.897598,Gymnastics,,,,,Cooper Street Essendon 3040,,"['Moonee Valley City Council', 'Essendon', 'Sports', 'Gymnastics']",,
140,Moonee Valley City Council,Essendon Hockey Centre,Ascot Vale,-37.776742,144.935917,Hockey,2.0,Artificial Turf,,Unisex,2 Hockey Lane Ascot Vale 3032,,"['Moonee Valley City Council', 'Ascot Vale', 'Sports', 'Hockey']",,
141,Moonee Valley City Council,PEGS Sports Field,Keilor East,-37.734239,144.870981,Hockey,2.0,Artificial Turf,,,"Penleigh & Essendon Grammar School East Keilor Campus, Susan Court, Valley Lake, Keilor East, City of Moonee Valley, Victoria, 3033, Australia",,"['Moonee Valley City Council', 'Keilor East', 'Sports', 'Hockey']",,
142,Moonee Valley City Council,Aberfeldie Bowls Club,Essendon,-37.757436,144.908587,Lawn Bowls,2.0,Grass,4. Good,Unisex,13 Scott Street Essendon 3040,,"['Moonee Valley City Council', 'Essendon', 'Sports']",,
143,Moonee Valley City Council,Buckley Park Bowls Club,Essendon,-37.74369,144.897555,Lawn Bowls,7.0,Grass,5. Very Good,Unisex,Cooper Street Essendon 3040,,"['Moonee Valley City Council', 'Essendon', 'Sports']",,
144,Moonee Valley City Council,Clifton Park Bowling Club,Aberfeldie,-37.755774,144.8927,Lawn Bowls,2.0,Grass,3. Average,Unisex,7 Batman Street Aberfeldie 3040,,"['Moonee Valley City Council', 'Aberfeldie', 'Sports']",,
145,Moonee Valley City Council,Doutta Galla Bowls Club,North Essendon,-37.739,144.9035,Lawn Bowls,2.0,Grass,2. Poor,Unisex,52-56 Kerferd Street North Essendon 3041,,"['Moonee Valley City Council', 'North Essendon', 'Sports']",,
146,Moonee Valley City Council,Essendon Bowls Club,Essendon,-37.752814,144.919345,Lawn Bowls,2.0,Grass,4. Good,"Female, Male",Raleigh Street Essendon 3040,,"['Moonee Valley City Council', 'Essendon', 'Sports']",,
147,Moonee Valley City Council,Maribyrnong Park Bowls Club,Moonee Ponds,-37.765552,144.903115,Lawn Bowls,3.0,Grass,4. Good,"Female, Male",189 Holmes Road Moonee Ponds 3039,,"['Moonee Valley City Council', 'Moonee Ponds', 'Sports']",,
148,Moonee Valley City Council,Moonee Ponds Bowls Club,Moonee Ponds,-37.762647,144.923561,Lawn Bowls,2.0,Grass,,"Female, Male",776 Mount Alexander Road Moonee Ponds 3039,,"['Moonee Valley City Council', 'Moonee Ponds', 'Sports']",,
149,Moonee Valley City Council,Moonee Valley Bowls Club,Moonee Ponds,-37.770822,144.934358,Lawn Bowls,,,,,2 Pattison Street Moonee Ponds 3039,,"['Moonee Valley City Council', 'Moonee Ponds', 'Sports']",,
150,Moonee Valley City Council,Strathmore Bowls Club,Strathmore,-37.734016,144.92031,Lawn Bowls,3.0,Grass,,Unisex,28 Loeman Street Strathmore 3041,,"['Moonee Valley City Council', 'Strathmore', 'Sports']",,
151,Moonee Valley City Council,Niddrie Community Centre Netball Courts,Airport West,-37.7318,144.884284,Netball,3.0,Synthetic,,,27 Bowes Avenue Airport West 3042,,"['Moonee Valley City Council', 'Airport West', 'Sports', 'Netball']",,
152,Moonee Valley City Council,JH Allan Reserve,Keilor East,-37.747538,144.857438,Soccer,1.0,Grass,4. Good,"Umpire/Officials, Unisex","Park Drive, Valley Lake, Keilor East, City of Moonee Valley, Victoria, 3033, Australia",,"['Moonee Valley City Council', 'Keilor East', 'Sports', 'Soccer']",,
153,Moonee Valley City Council,Quinn Grove Reserve,East Keilor,-37.739438,144.872,Soccer,1.0,Artificial Turf,5. Very Good,Unisex,84 Quinn Grove East Keilor 3033,,"['Moonee Valley City Council', 'East Keilor', 'Sports', 'Soccer']",,
154,Moonee Valley City Council,Indoor Soccer Headquarters,Airport West,-37.715962,144.889,Soccer (Indoor Soccer / Futsal),2.0,,,,8 Louise Street Airport West 3042,,"['Moonee Valley City Council', 'Airport West', 'Sports', 'Soccer']",,
155,Moonee Valley City Council,Essendon Squash Courts,Moonee Ponds,-37.758,144.917,Squash / Racquetball,,,,,7 Carlyle Street Moonee Ponds 3039,,"['Moonee Valley City Council', 'Moonee Ponds', 'Sports', 'Squash']",,
156,Moonee Valley City Council,Paul Saddler Swimland,Essendon,-37.748589,144.883248,Swimming,,,,,41a Rosehill Road Essendon 3040,,"['Moonee Valley City Council', 'Essendon', 'Sports', 'Swimming']",,
157,Moonee Valley City Council,Queens Park Swimming Pool,Moonee Ponds,-37.761978000000000,144.925204,Swimming,,"25m Pool - Outdoor, 30m Pool - Outdoor, Toddlers Pool",2. Poor,"Female, Male",Corner The Strand & Pascoe Vale Road Moonee Ponds 3039,,"['Moonee Valley City Council', 'Moonee Ponds', 'Sports', 'Swimming']",,
158,Moonee Valley City Council,Seymour's Pool,Essendon,-37.741017,144.89586700000000,Swimming,,,,,23 Graves Street Essendon 3040,,"['Moonee Valley City Council', 'Essendon', 'Sports', 'Swimming']",,
159,Moonee Valley City Council,Max Johnstone Reserve,Strathmore,-37.73377,144.919345,Tennis (Outdoor),5.0,Hard Court,2. Poor,,Corner Loeman and Napier Street Strathmore 3041,,"['Moonee Valley City Council', 'Strathmore', 'Sports', 'Tennis']",,
160,Melton City Council,Melton South Recreation Reserve,Melton South,-37.708261,144.576442,Athletics,1.0,Grass,3. Average,Unisex,Northcott Street Melton South 3338,,"['Melton City Council', 'Melton South', 'Sports', 'Athletics']",,
161,Melton City Council,Arnolds Creek Recreation Reserve,Melton,-37.667209,144.546475,Australian Rules Football,1.0,Grass,Same as above,Same as above,Claret Ash Boulevard Melton 3337,,"['Melton City Council', 'Melton', 'Sports', 'Football']",,
162,Melton City Council,Blackwood Drive Recreation Reserve,Melton,-37.692236,144.57204300000000,Australian Rules Football,2.0,Grass,4. Good,"Female, Male, Umpire/Officials",Blackwood Drive Melton 3337,,"['Melton City Council', 'Melton', 'Sports', 'Football']",,
163,Melton City Council,Burnside Heights Recreation Reserve,Burnside Heights,-37.736311,144.754676,Australian Rules Football,2.0,Grass,5. Very Good,"Female, Male, Umpire/Officials",Tenterfield Drive Burnside Heights 3023,,"['Melton City Council', 'Burnside Heights', 'Sports', 'Football']",,
164,Melton City Council,Caroline Springs Town Centre Recreation Reserve,Caroline Springs,-37.733132,144.737208,Australian Rules Football,2.0,Grass,4. Good,"Female, Male",The Crossing Caroline Springs 3023,,"['Melton City Council', 'Caroline Springs', 'Sports', 'Football']",,
165,Melton City Council,Diggers Rest Recreation Reserve,Diggers Rest,-37.621057,144.708629,Australian Rules Football,2.0,Grass,3. Average,"Female, Male",Plumpton Road Diggers Rest 3427,,"['Melton City Council', 'Diggers Rest', 'Sports', 'Football']",,
166,Melton City Council,Hillside Recreation Reserve,Hillside,-37.684739,144.738356,Australian Rules Football,1.0,Grass,4. Good,Unisex,Royal Crescent Hillside 3037,,"['Melton City Council', 'Hillside', 'Sports', 'Football']",,
167,Melton City Council,MacPherson Park Recreation Reserve,Melton,-37.636414,144.57175,Australian Rules Football,1.0,Grass,3. Average,Unisex,Coburns Road Melton 3337,,"['Melton City Council', 'Melton', 'Sports', 'Football']",,
168,Melton City Council,Melton Recreation Reserve,Melton,-37.685217,144.588602,Australian Rules Football,1.0,Grass,4. Good,Unisex,Reserve Road Melton 3337,,"['Melton City Council', 'Melton', 'Sports', 'Football']",,
169,Melton City Council,Rockbank Recreation Reserve,Rockbank,-37.732548,144.659747,Australian Rules Football,1.0,Grass,3. Average,Unisex,Westcott Parade Rockbank 3335,,"['Melton City Council', 'Rockbank', 'Sports', 'Football']",,
170,Melton City Council,Caroline Springs Leisure Centre,Caroline Springs,-37.732588,144.73988,Badminton,8.0,Wooden Flooring,5. Very Good,"Female, Male, Umpire/Officials",9-19 The Parade Caroline Springs 3023,,"['Melton City Council', 'Caroline Springs', 'Sports', 'Badminton']",,
171,Melton City Council,Banchory Avenue Tennis Court,Hillside,-37.688411,144.74898000000000,Basketball,1.0,Asphalt,3. Average,,Banchory Avenue Hillside 3037,,"['Melton City Council', 'Hillside', 'Sports', 'Basketball']",,
172,Melton City Council,Eynesbury Tennis Centre,Eynesbury,-37.76724,144.562905,Basketball,1.0,Synthetic,,,Eynesbury Road Eynesbury 3338,,"['Melton City Council', 'Eynesbury', 'Sports', 'Basketball']",,
173,Melton City Council,Melton Indoor Recreation Centre,Melton,-37.681499,144.567827,Basketball,3.0,Wooden Gymnasium,4. Good,"Female, Male",Coburns Road Melton 3337,,"['Melton City Council', 'Melton', 'Sports', 'Basketball']",,
174,Melton City Council,Melton Indoor Sports Stadium,Melton,-37.681499,144.567827,Beach Volleyball,,,,,65 Reserve Road Melton 3337,,"['Melton City Council', 'Melton', 'Sports']",,
175,Melton City Council,Kurunjang Park Recreation Reserve,Melton,-37.671775,144.583759,Cricket,2.0,Synthetic Pitch,4. Good,"Umpire/Officials, Unisex",Centenary Avenue Melton 3337,,"['Melton City Council', 'Melton', 'Sports', 'Cricket']",,
176,Melton City Council,Westlakes Recreation Reserve,Melton,-37.679754,144.54876400000000,Cricket,1.0,Synthetic Pitch,3. Average,,Bulmans Road Melton 3337,,"['Melton City Council', 'Melton', 'Sports', 'Cricket']",,
177,Melton City Council,Melton Equestrian Park,Melton,-37.638326,144.556654,Equestrian,,Grass,4. Good,Unisex,Bulmans Road Melton 3337,,"['Melton City Council', 'Melton', 'Sports']",,
178,Melton City Council,Body Style World of Health & Fitness,Melton,-37.685,144.58100000000000,Fitness / Gymnasium Workouts,,,,,41 McKenzie Street Melton 3337,,"['Melton City Council', 'Melton', 'Sports', 'Gymnasium']",,
179,Melton City Council,Contours Caroline Springs Fitness Studio,Caroline Springs,-37.732122,144.741538,Fitness / Gymnasium Workouts,,,,,Caroline Springs Boulevard Caroline Springs 3023,,"['Melton City Council', 'Caroline Springs', 'Sports', 'Gymnasium']",,
180,Melton City Council,Fernwood Women's Health Clubs,Melton,-37.683773,144.57879,Fitness / Gymnasium Workouts,,,,,413 High Street Melton 3337,,"['Melton City Council', 'Melton', 'Sports', 'Gymnasium']",,
181,Melton City Council,Genisis Melton,Melton,-37.70104600000000,144.564534,Fitness / Gymnasium Workouts,,,,,1/15-21 Coburns Road Melton 3337,,"['Melton City Council', 'Melton', 'Sports', 'Gymnasium']",,
182,Melton City Council,Healthy Inspirations Melton,Melton,-37.684,144.5945,Fitness / Gymnasium Workouts,,,,,175 High Street Melton 3337,,"['Melton City Council', 'Melton', 'Sports', 'Gymnasium']",,
183,Melton City Council,Inch by Inch Body Toning,Melton South,-37.700161,144.578936,Fitness / Gymnasium Workouts,,,,,Sutherland Avenue Melton South 3338,,"['Melton City Council', 'Melton South', 'Sports', 'Gymnasium']",,
184,Melton City Council,Melton Waves Leisure Centre,Melton,-37.678426,144.570107,Fitness / Gymnasium Workouts,,,4. Good,"Female, Male, Unisex",Coburns Road Melton 3337,,"['Melton City Council', 'Melton', 'Sports', 'Gymnasium']",,
185,Melton City Council,Obsessed with Fitness,Ravenhall,-37.771128,144.754312,Fitness / Gymnasium Workouts,,,,,3/7-9 Westwood Drive Ravenhall 3023,,"['Melton City Council', 'Ravenhall', 'Sports', 'Gymnasium']",,
186,Melton City Council,Re-Creation Health Club,Caroline Springs,-37.733,144.7415,Fitness / Gymnasium Workouts,,,,,13-15 Lake Street Caroline Springs 3023,,"['Melton City Council', 'Caroline Springs', 'Sports', 'Gymnasium']",,
187,Melton City Council,Eynesbury Golf Club,Eynesbury,-37.76724,144.562905,Golf,,18 Hole Course - Public,,,Eynesbury Road Eynesbury 3338,,"['Melton City Council', 'Eynesbury', 'Sports', 'Golf']",,
188,Melton City Council,Melton Golf Range,Melton,-37.698673,144.603592,Golf,,,,,Ferris Road Melton 3337,,"['Melton City Council', 'Melton', 'Sports', 'Golf']",,
189,Melton City Council,Melton Valley Golf Course,Melton,-37.68097,144.595673,Golf,,18 Hole Course - Public,,,Melton Valley Drive Melton 3337,,"['Melton City Council', 'Melton', 'Sports', 'Golf']",,
190,Melton City Council,Gymnastics Unlimited Caroline Springs,Ravenhall,-37.764999,144.752,Gymnastics,,,,,5/51-53 Westwood Drive Ravenhall 3023,,"['Melton City Council', 'Ravenhall', 'Sports', 'Gymnastics']",,
191,Melton City Council,Melton Gymnastic Academy,Melton,-37.690122,144.59992,Gymnastics,,,,,9 Collins Road Melton 3337,,"['Melton City Council', 'Melton', 'Sports', 'Gymnastics']",,
192,Melton City Council,Heathdale Christian College (Formerly Mowbray College),Melton,-37.66960200000000,144.58118000000000,Hockey,1.0,Artificial Turf,,,Centenary Avenue Melton 3337,,"['Melton City Council', 'Melton', 'Sports', 'Hockey']",,
193,Melton City Council,Mowbray College,Melton,-37.669944,144.581028,Hockey,1.0,Artificial Turf,,,Centenary Avenue Melton 3337,,"['Melton City Council', 'Melton', 'Sports', 'Hockey']",,
194,Melton City Council,Diggers Rest Bowling Club,Diggers Rest,-37.629674,144.721541,Lawn Bowls,1.0,Artificial Turf,3. Average,"Female, Male",Old Calder Highway Diggers Rest 3427,,"['Melton City Council', 'Diggers Rest', 'Sports']",,
195,Melton City Council,Melton Bowling Club,Melton,-37.68476500000000,144.592489,Lawn Bowls,2.0,Artificial Turf,3. Average,,Reserve Road Melton 3337,,"['Melton City Council', 'Melton', 'Sports']",,
196,Melton City Council,Mount Cottrell Bowls Club,Rockbank,-37.739144,144.61609200000000,Lawn Bowls,1.0,,,,1307-1349 Mount Cottrell Road Rockbank 3335,,"['Melton City Council', 'Rockbank', 'Sports']",,
197,Melton City Council,Westside Martial Arts,Ravenhall,-37.766095,144.747198,Martial Arts,,,,,Rebecca Drive Ravenhall 3023,,"['Melton City Council', 'Ravenhall', 'Sports', 'Martial Arts']",,
198,Melton City Council,Melton Pistol Club,Melton South,-37.714241,144.547177,Shooting Sports,,,,,Clarkes Road Melton South 3338,,"['Melton City Council', 'Melton South', 'Sports', 'Shooting']",,
199,Melton City Council,Cambrian Way Skate Park,Melton West,-37.675673,144.552774,Skating,1.0,,3. Average,,Cambrian Way Melton West 3337,,"['Melton City Council', 'Melton West', 'Sports', 'Skating']",,
200,Melton City Council,Melton South Skate Park,Melton South,-37.705053,144.564884,Skating,1.0,Concrete,,,Rees Road Melton South 3338,,"['Melton City Council', 'Melton South', 'Sports', 'Skating']",,
201,Melton City Council,Springside Recreation Reserve,Caroline Springs,-37.711792,144.736895,Soccer,2.0,Artificial Turf,5. Very Good,"Umpire/Officials, Unisex",Lancefield Drive Caroline Springs 3023,,"['Melton City Council', 'Caroline Springs', 'Sports', 'Soccer']",,
202,Melton City Council,Melton Squash Central,Melton,-37.685548,144.582007,Squash / Racquetball,,,,,McKenzie Street Melton 3337,,"['Melton City Council', 'Melton', 'Sports', 'Squash']",,
203,Melton City Council,Squash Logic Melton,Melton,-37.686703,144.590397,Squash / Racquetball,8.0,,,,63 Reserve Road Melton 3337,,"['Melton City Council', 'Melton', 'Sports', 'Squash']",,
204,Melton City Council,State Swim Caroline Springs,Caroline Springs,-37.73443,144.738651,Swimming,,,4. Good,,16-24 The Parade Caroline Springs 3023,,"['Melton City Council', 'Caroline Springs', 'Sports', 'Swimming']",,
205,Melton City Council,Swimmers Learn to Swim,Melton South,-37.7,144.576,Swimming,,,4. Good,,30-36 Station Road Melton South 3338,,"['Melton City Council', 'Melton South', 'Sports', 'Swimming']",,
206,Melton City Council,YMCA Kororoit Creek,Burnside Heights,-37.73455,144.752101,Swimming,,25m Pool - Indoor,,,5 Millport Drive Burnside Heights 3023,,"['Melton City Council', 'Burnside Heights', 'Sports', 'Swimming']",,
207,Melton City Council,Melton Table Tennis Association (Victoria University),Melton South,-37.707164,144.565688,Table Tennis,10.0,Wooden Gymnasium,3. Average,,Rees Road Melton South 3338,,"['Melton City Council', 'Melton South', 'Sports', 'Table Tennis']",,
208,Melton City Council,Parkwood Green Recreation Reserve,Hillside,-37.698748,144.746309,Tennis (Outdoor),6.0,Artificial Turf,4. Good,Unisex,Community Hub Hillside 3037,,"['Melton City Council', 'Hillside', 'Sports', 'Tennis']",,
209,Melton City Council,Springlake Avenue Tennis Court,Caroline Springs,-37.752549,144.736848,Tennis (Outdoor),1.0,Plexipave,4. Good,,Springlake Avenue Caroline Springs 3023,,"['Melton City Council', 'Caroline Springs', 'Sports', 'Tennis']",,
210,Melton City Council,Sugar Gum Drive Tennis Court,Hillside,-37.697596,144.73555,Tennis (Outdoor),1.0,,3. Average,,Sugar Gum Drive Hillside 3037,,"['Melton City Council', 'Hillside', 'Sports', 'Tennis']",,
211,Melton City Council,Toolern Vale Tennis Courts,Toorlern Vale,-37.608001,144.596038,Tennis (Outdoor),2.0,,3. Average,Unisex,Coimadai Road Toorlern Vale 3337,,"['Melton City Council', 'Toorlern Vale', 'Sports', 'Tennis']",,
212,Melton City Council,West Melton Tennis Courts,Melton,-37.682446,144.56389,Tennis (Outdoor),8.0,Artificial Turf,2. Poor,"Female, Male",James Cook Drive Melton 3337,,"['Melton City Council', 'Melton', 'Sports', 'Tennis']",,
213,Brimbank City Council,JR Parsons Reserve,Sunshine,-37.79601,144.836154,Athletics,,,,,Stanford Street Sunshine 3020,,"['Brimbank City Council', 'Sunshine', 'Sports', 'Athletics']",,
214,Brimbank City Council,Keilor Park Recreational Reserve,Keilor Park,-37.714786,144.855205,Athletics,1.0,,,,Stadium Drive Keilor Park 3042,,"['Brimbank City Council', 'Keilor Park', 'Sports', 'Athletics']",,
215,Brimbank City Council,Moore Park,Deer Park,-37.773301,144.795845,Athletics,,,,,Esmond Street Deer Park 3023,,"['Brimbank City Council', 'Deer Park', 'Sports', 'Athletics']",,
216,Brimbank City Council,Sassella Park,Deer Park,-37.764036,144.77416400000000,Athletics,1.0,,,,Station Road Deer Park 3023,,"['Brimbank City Council', 'Deer Park', 'Sports', 'Athletics']",,
217,Brimbank City Council,Ainsworth Reserve,Sunshine,-37.7868,144.800896,Australian Rules Football,1.0,Grass,,,Glengala Road Sunshine 3020,,"['Brimbank City Council', 'Sunshine', 'Sports', 'Football']",,
218,Brimbank City Council,Cairnlea Park,Cairnlea,-37.75882100000000,144.79356300000000,Australian Rules Football,1.0,Grass,,,Furlong Road Cairnlea 3023,,"['Brimbank City Council', 'Cairnlea', 'Sports', 'Football']",,
219,Brimbank City Council,Deer Park Reserve,Deer Park,-37.771846,144.77783200000000,Australian Rules Football,,Grass,,,Ballarat Road Deer Park 3023,,"['Brimbank City Council', 'Deer Park', 'Sports', 'Football']",,
220,Brimbank City Council,Delahey Recreation Reserve,Delahey,-37.7164,144.7741,Australian Rules Football,,Grass,,,Goldsmith Avenue Delahey 3037,,"['Brimbank City Council', 'Delahey', 'Sports', 'Football']",,
221,Brimbank City Council,Dempster Park,Sunshine,-37.775225,144.837725,Australian Rules Football,1.0,Grass,,,Phoenix Street Sunshine 3020,,"['Brimbank City Council', 'Sunshine', 'Sports', 'Football']",,
222,Brimbank City Council,Errington Reserve,St Albans,-37.745542,144.803277,Australian Rules Football,1.0,Grass,,,Percy Street St Albans 3021,,"['Brimbank City Council', 'St Albans', 'Sports', 'Football']",,
223,Brimbank City Council,Green Gully Reserve,Keilor,-37.725518,144.818828,Australian Rules Football,1.0,Grass,,,Green Gully Road Keilor 3036,,"['Brimbank City Council', 'Keilor', 'Sports', 'Football']",,
224,Brimbank City Council,John McLeod Reserve,Deer Park,-37.771918,144.777673,Australian Rules Football,,Grass,,,Hume Street Deer Park 3023,,"['Brimbank City Council', 'Deer Park', 'Sports', 'Football']",,
225,Brimbank City Council,Keilor Recreation Reserve,Keilor,-37.717403,144.832595,Australian Rules Football,1.0,Grass,,,Old Calder Highway Keilor 3036,,"['Brimbank City Council', 'Keilor', 'Sports', 'Football']",,
226,Brimbank City Council,Kevin Flint Reserve,Cairnlea,-37.758816,144.793504,Australian Rules Football,1.0,Grass,,,Furlong Road Cairnlea 3023,,"['Brimbank City Council', 'Cairnlea', 'Sports', 'Football']",,
227,Brimbank City Council,Kings Park,St Albans,-37.732765,144.776658,Australian Rules Football,1.0,Grass,,,Gillespie Road St Albans 3021,,"['Brimbank City Council', 'St Albans', 'Sports', 'Football']",,
228,Brimbank City Council,Lionheart Reserve,Taylors Lakes,-37.708386,144.791658,Australian Rules Football,2.0,Grass,,,Lionheart Avenue Taylors Lakes 3038,,"['Brimbank City Council', 'Taylors Lakes', 'Sports', 'Football']",,
229,Brimbank City Council,Robert Bruce Reserve,Deer Park,-37.754068,144.77654000000000,Australian Rules Football,1.0,Grass,,,Gould Street Deer Park 3023,,"['Brimbank City Council', 'Deer Park', 'Sports', 'Football']",,
230,Brimbank City Council,Selwyn Park,Albion,-37.781765,144.81416400000000,Australian Rules Football,1.0,Grass,,,Selwyn Street Albion 3020,,"['Brimbank City Council', 'Albion', 'Sports', 'Football']",,
231,Brimbank City Council,Tallintyre Reserve,Sunshine,-37.799758,144.811911,Australian Rules Football,1.0,Grass,,,Kermeen Street Sunshine 3020,,"['Brimbank City Council', 'Sunshine', 'Sports', 'Football']",,
232,Brimbank City Council,Barclay Reserve,Albion,-37.78100900000000,144.825909,Baseball,1.0,,,,Talmage Street Albion 3020,,"['Brimbank City Council', 'Albion', 'Sports', 'Baseball']",,
233,Brimbank City Council,Brimbank College,St Albans,-37.740071,144.784559,Basketball,,,,,Jamieson Street St Albans 3021,,"['Brimbank City Council', 'St Albans', 'Sports', 'Basketball']",,
234,Brimbank City Council,Keilor Basketball Stadium,Keilor Park,-37.713334,144.848237,Basketball,3.0,,,,Stadium Drive Keilor Park 3042,,"['Brimbank City Council', 'Keilor Park', 'Sports', 'Basketball']",,
235,Brimbank City Council,Sydenham Primary School,Sydenham,-37.702404,144.760113,Basketball,,,,,Community Hub Sydenham 3037,,"['Brimbank City Council', 'Sydenham', 'Sports', 'Basketball']",,
236,Brimbank City Council,West Sunshine Community Centre,Sunshine,-37.798696,144.81219300000000,Basketball,,,,,25 Kermeen Street Sunshine 3020,,"['Brimbank City Council', 'Sunshine', 'Sports', 'Basketball']",,
237,Brimbank City Council,Brimbank Park,Keilor,-37.73029,144.837251,BMX,,,,,Keilor Park Drive Keilor 3036,,"['Brimbank City Council', 'Keilor', 'Sports']",,
238,Brimbank City Council,Carrington Reserve,Albion,-37.77092800000000,144.810941,BMX,,,,,Carrington Drive Albion 3020,,"['Brimbank City Council', 'Albion', 'Sports']",,
239,Brimbank City Council,Max Bowman Gymnasium,Sunshine,-37.783767,144.843339,Boxing,,,,,10 Dorothy Avenue Sunshine 3020,,"['Brimbank City Council', 'Sunshine', 'Sports', 'Boxing']",,
240,Brimbank City Council,Keilor Downs Primary School,Keilor Downs,-37.717249,144.808299,Callisthenics,,,,,Swindon Crescent Keilor Downs 3038,,"['Brimbank City Council', 'Keilor Downs', 'Sports']",,
241,Brimbank City Council,St Albans East Primary School,St Albans,-37.742532,144.810649,Callisthenics,,,,,Station Avenue St Albans 3021,,"['Brimbank City Council', 'St Albans', 'Sports']",,
242,Brimbank City Council,Arthur Beachley Reserve,Sunshine,-37.797168,144.823844,Cricket,1.0,,,,Ardoyne Street Sunshine 3020,,"['Brimbank City Council', 'Sunshine', 'Sports', 'Cricket']",,
243,Brimbank City Council,Balmoral Park Reserve,Derrimut,-37.791913,144.76584500000000,Cricket,2.0,,,,Windsor Boulevard Derrimut 3030,,"['Brimbank City Council', 'Derrimut', 'Sports', 'Cricket']",,
244,Brimbank City Council,Bon Thomas Reserve,Deer Park,-37.774227,144.763948,Cricket,2.0,Synthetic Pitch,,,Bayliss Road Deer Park 3023,,"['Brimbank City Council', 'Deer Park', 'Sports', 'Cricket']",,
245,Brimbank City Council,Diamond Reserve,Albanvale,-37.74543900000000,144.774144,Cricket,1.0,Synthetic Pitch,,,Diamond Avenue Albanvale 3021,,"['Brimbank City Council', 'Albanvale', 'Sports', 'Cricket']",,
246,Brimbank City Council,Loyd Reserve,St Albans,-37.764186,144.822827,Cricket,1.0,,,,Lurg Avenue St Albans 3021,,"['Brimbank City Council', 'St Albans', 'Sports', 'Cricket']",,
247,Brimbank City Council,Deer Park Hall,Deer Park,-37.773404,144.774682,Dancing,,,,,50 Station Road Deer Park 3023,,"['Brimbank City Council', 'Deer Park', 'Sports', 'Dancing']",,
248,Brimbank City Council,Glengala Community Centre,Sunshine,-37.790274,144.81663800000000,Dancing,,,,,Glengala Road Sunshine 3020,,"['Brimbank City Council', 'Sunshine', 'Sports', 'Dancing']",,
249,Brimbank City Council,Old Shire Hall,Keilor,-37.719093,144.833525,Dancing,,,,,Old Calder Highway Keilor 3036,,"['Brimbank City Council', 'Keilor', 'Sports', 'Dancing']",,
250,Brimbank City Council,St Albans Community Youth Club,St Albans,-37.745952,144.815068,Dancing,,,,,Main Road East St Albans 3021,,"['Brimbank City Council', 'St Albans', 'Sports', 'Dancing']",,
251,Brimbank City Council,Urban Force Studio,Kealba,-37.740183,144.8272,Dancing,,,,,Sunshine Avenue Kealba 3021,,"['Brimbank City Council', 'Kealba', 'Sports', 'Dancing']",,
252,Brimbank City Council,Westvale Community Centre,St Albans,-37.737296,144.780034,Dancing,,,,,Kings Road St Albans 3021,,"['Brimbank City Council', 'St Albans', 'Sports', 'Dancing']",,
253,Brimbank City Council,Anytime Fitness Keilor Downs,Keilor Downs,-37.72728,144.806626,Fitness / Gymnasium Workouts,,,,,80 Taylors Road Keilor Downs 3038,,"['Brimbank City Council', 'Keilor Downs', 'Sports', 'Gymnasium']",,
254,Brimbank City Council,Brimbank Sports Centre,St Albans,-37.747165,144.80018,Fitness / Gymnasium Workouts,,,,,McKechnie Street St Albans 3021,,"['Brimbank City Council', 'St Albans', 'Sports', 'Gymnasium']",,
255,Brimbank City Council,Curves Taylors Lakes,Taylors Lakes,-37.72728,144.806626,Fitness / Gymnasium Workouts,,,,,3/1 Melton Highway Taylors Lakes 3038,,"['Brimbank City Council', 'Taylors Lakes', 'Sports', 'Gymnasium']",,
256,Brimbank City Council,Fenix Fitness Taylors Lakes,Taylors Lakes,-37.700147,144.774151,Fitness / Gymnasium Workouts,,,,,399 Melton Highway Taylors Lakes 3038,,"['Brimbank City Council', 'Taylors Lakes', 'Sports', 'Gymnasium']",,
257,Brimbank City Council,Fernwood Gym,Sydenham,-37.695334,144.767025,Fitness / Gymnasium Workouts,,,,,511/521 Melton Highway Sydenham 3037,,"['Brimbank City Council', 'Sydenham', 'Sports', 'Gymnasium']",,
258,Brimbank City Council,Goodlife Health Clubs Taylors Lakes,Taylors Lakes,-37.700632,144.774459,Fitness / Gymnasium Workouts,,,,,399 Melton Highway Taylors Lakes 3038,,"['Brimbank City Council', 'Taylors Lakes', 'Sports', 'Gymnasium']",,
259,Brimbank City Council,Health Club 101,St Albans,-37.744148,144.79656700000000,Fitness / Gymnasium Workouts,,,,,101 Main Road West St Albans 3021,,"['Brimbank City Council', 'St Albans', 'Sports', 'Gymnasium']",,
260,Brimbank City Council,Kaye's Unique Toning,Taylors Lakes,-37.707826,144.78946400000000,Fitness / Gymnasium Workouts,,,,,Sceptre Court Taylors Lakes 3038,,"['Brimbank City Council', 'Taylors Lakes', 'Sports', 'Gymnasium']",,
261,Brimbank City Council,Kieser Training,Sydenham,-37.695258,144.767008,Fitness / Gymnasium Workouts,,,,,15/17 Overton Lea Boulevard Sydenham 3037,,"['Brimbank City Council', 'Sydenham', 'Sports', 'Gymnasium']",,
262,Brimbank City Council,Kore Wellness & Swim School,Taylors Lakes,-37.701702,144.79779,Fitness / Gymnasium Workouts,,,,"Female, Male",7 Melton Highway Taylors Lakes 3038,,"['Brimbank City Council', 'Taylors Lakes', 'Sports', 'Gymnasium']",,
263,Brimbank City Council,Platinum Health & Pilates,Sunshine,-37.780525,144.827799,Fitness / Gymnasium Workouts,,,,,151 Anderson Street Sunshine 3020,,"['Brimbank City Council', 'Sunshine', 'Sports', 'Gymnasium']",,
264,Brimbank City Council,Run With Me Fitness Club Sunshine West,Sunshine West,-37.79186,144.789894,Fitness / Gymnasium Workouts,,,,,11/1 David Drive Sunshine West 3020,,"['Brimbank City Council', 'Sunshine West', 'Sports', 'Gymnasium']",,
265,Brimbank City Council,Samurai Karate Sunshine,Sunshine,-37.787273,144.83345400000000,Fitness / Gymnasium Workouts,,,,,54A Station Place Sunshine 3020,,"['Brimbank City Council', 'Sunshine', 'Sports', 'Gymnasium']",,
266,Brimbank City Council,St Albans Campus Fitness Centre,St Albans,-37.752777,144.798147,Fitness / Gymnasium Workouts,,,,,McKechnie Street St Albans 3021,,"['Brimbank City Council', 'St Albans', 'Sports', 'Gymnasium']",,
267,Brimbank City Council,St Albans Leisure Centre,St Albans,-37.728203,144.804954,Fitness / Gymnasium Workouts,,,,,90 Taylors Road St Albans 3021,,"['Brimbank City Council', 'St Albans', 'Sports', 'Gymnasium']",,
268,Brimbank City Council,Sunshine Swim & Leisure Centre,Sunshine,-37.784577,144.835023,Fitness / Gymnasium Workouts,,,,,5 Kennedy Street Sunshine 3020,,"['Brimbank City Council', 'Sunshine', 'Sports', 'Gymnasium']",,
269,Brimbank City Council,The Lakes Health & Fitness Centre,Sunshine,-37.703161,144.80096,Fitness / Gymnasium Workouts,,,,"Female, Male",555 Sunshine Avenue Sunshine 3020,,"['Brimbank City Council', 'Sunshine', 'Sports', 'Gymnasium']",,
270,Brimbank City Council,Victorian University Fitness Centre,St Albans,-37.752777,144.798147,Fitness / Gymnasium Workouts,,,,,McKechnie Street St Albans 3021,,"['Brimbank City Council', 'St Albans', 'Sports', 'Gymnasium']",,
271,Brimbank City Council,World Gym Sunshine,Sunshine,-37.779588,144.828995,Fitness / Gymnasium Workouts,,,,,131 Harvester Road Sunshine 3020,,"['Brimbank City Council', 'Sunshine', 'Sports', 'Gymnasium']",,
272,Brimbank City Council,Xplode 24 Hr Gym,Sunshine West,-37.805148,144.817151,Fitness / Gymnasium Workouts,,,,,656 Somerville Road Sunshine West 3020,,"['Brimbank City Council', 'Sunshine West', 'Sports', 'Gymnasium']",,
273,Brimbank City Council,Keilor Public Golf Course and Driving Range,Keilor,-37.684865,144.793983,Golf,18.0,18 Hole Course - Public,,,540 Calder Highway Keilor 3036,,"['Brimbank City Council', 'Keilor', 'Sports', 'Golf']",,
274,Brimbank City Council,Sunshine Golf Club,Derrimut,-37.793618,144.773947,Golf,1.0,18 Hole Course - Public,,,475 Mt Derrimut Road Derrimut 3020,,"['Brimbank City Council', 'Derrimut', 'Sports', 'Golf']",,
275,Brimbank City Council,Gymnastics Unlimited,Kelba,-37.740416,144.827302,Gymnastics,,,,,12 Malcolm Court Kelba 3021,,"['Brimbank City Council', 'Kelba', 'Sports', 'Gymnastics']",,
276,Brimbank City Council,Gymnastics Unlimited Australia,Kealba,-37.740374,144.827255,Gymnastics,,,,,4/12 Sunshine Avenue Kealba 3021,,"['Brimbank City Council', 'Kealba', 'Sports', 'Gymnastics']",,
277,Brimbank City Council,Deer Park Bowling Club,Deer Park,-37.770581,144.78116800000000,Lawn Bowls,2.0,Grass,,,780 Ballarat Road Deer Park 3023,,"['Brimbank City Council', 'Deer Park', 'Sports']",,
278,Brimbank City Council,Keilor Bowls Club,Keilor,-37.716472,144.832315,Lawn Bowls,2.0,Grass,,,1 Barcelona Avenue Keilor 3036,,"['Brimbank City Council', 'Keilor', 'Sports']",,
279,Brimbank City Council,Kevin Wheelan Gardens,Sunshine,-37.786648,144.83763100000000,Lawn Bowls,2.0,Grass,,,Dickson Street Sunshine 3020,,"['Brimbank City Council', 'Sunshine', 'Sports']",,
280,Brimbank City Council,St Albans Bowls Club,St Albans,-37.731574,144.776375,Lawn Bowls,1.0,Grass,,,Magnolia Avenue St Albans 3021,,"['Brimbank City Council', 'St Albans', 'Sports']",,
281,Brimbank City Council,Sunshine City Bowls Club,Sunshine,-37.779357,144.82413400000000,Lawn Bowls,2.0,Grass,,,24 Talmage Street Sunshine 3020,,"['Brimbank City Council', 'Sunshine', 'Sports']",,
282,Brimbank City Council,Hunt Club Community Arts Centre,Deer Park,-37.771206,144.77891100000000,Martial Arts,,,,,775 Ballarat Road Deer Park 3023,,"['Brimbank City Council', 'Deer Park', 'Sports', 'Martial Arts']",,
283,Brimbank City Council,Wright Martial Arts Centre,St Albans,-37.744557,144.800567,Martial Arts,,,,,327 Main Road East St Albans 3021,,"['Brimbank City Council', 'St Albans', 'Sports', 'Martial Arts']",,
284,Brimbank City Council,Copperfield Secondary College,Sydenham,-37.702186,144.760049,Netball,2.0,Asphalt,,,65-75 Community Hub Sydenham 3037,,"['Brimbank City Council', 'Sydenham', 'Sports', 'Netball']",,
285,Brimbank City Council,Sunshine Roller Skating Centre,Sunshine,-37.773235,144.829672,Roller Sports - Other,,,,,38 McIntyre Road Sunshine 3020,,"['Brimbank City Council', 'Sunshine', 'Sports']",,
286,Brimbank City Council,Packard Street Reserve,Keilor Downs,-37.728044,144.803402,Skating,1.0,,,,Packard Street Keilor Downs 3038,,"['Brimbank City Council', 'Keilor Downs', 'Sports', 'Skating']",,
287,Brimbank City Council,Ardeer Reserve,Ardeer,-37.778452,144.806221,Soccer,1.0,Grass,,,8 Helene Street Ardeer 3022,,"['Brimbank City Council', 'Ardeer', 'Sports', 'Soccer']",,
288,Brimbank City Council,Castley Reserve,Sunshine West,-37.791316,144.815455,Soccer,,,,,Simmie Street Sunshine West 3037,,"['Brimbank City Council', 'Sunshine West', 'Sports', 'Soccer']",,
289,Brimbank City Council,Chaplin Reserve,Sunshine,-37.785266,144.828573,Soccer,1.0,Grass,,,112-116 Anderson Road Sunshine 3020,,"['Brimbank City Council', 'Sunshine', 'Sports', 'Soccer']",,
290,Brimbank City Council,Churchill Reserve,St Albans,-37.733267,144.814423,Soccer,3.0,Grass,,,Fox Street St Albans 3021,,"['Brimbank City Council', 'St Albans', 'Sports', 'Soccer']",,
291,Brimbank City Council,Keilor Lodge Reserve,Sydenham,-37.688274,144.777599,Soccer,2.0,Grass,,,Robertsons Road Sydenham 3037,,"['Brimbank City Council', 'Sydenham', 'Sports', 'Soccer']",,
292,Brimbank City Council,Larisa Reserve,St Albans,-37.749222,144.819192,Soccer,1.0,Grass,,,Larisa Road St Albans 3021,,"['Brimbank City Council', 'St Albans', 'Sports', 'Soccer']",,
293,Brimbank City Council,McKechnie Reserve,St Albans,-37.746701,144.798335,Soccer,2.0,Grass,,,McKechnie Street St Albans 3021,,"['Brimbank City Council', 'St Albans', 'Sports', 'Soccer']",,
294,Brimbank City Council,Polish Sports and Recreation Centre,Albion,-37.770817,144.80674,Soccer,2.0,Grass,,,19 Carrington Drive Albion 3020,,"['Brimbank City Council', 'Albion', 'Sports', 'Soccer']",,
295,Brimbank City Council,Ralph Reserve,Sunshine,-37.792507,144.799159,Soccer,1.0,Grass,,,Ralph Street Sunshine 3020,,"['Brimbank City Council', 'Sunshine', 'Sports', 'Soccer']",,
296,Brimbank City Council,Deer Park Regional Community Sports Complex,Deer Park,-37.764058,144.774914,Swimming,,,,,Station Road Deer Park 3023,,"['Brimbank City Council', 'Deer Park', 'Sports', 'Swimming']",,
297,Brimbank City Council,Flippers Swimming School,Sydenham,-37.697338,144.766512,Swimming,,,,,50 Trickey Avenue Sydenham 3037,,"['Brimbank City Council', 'Sydenham', 'Sports', 'Swimming']",,
298,Brimbank City Council,Keilor Downs Community Centre,Keilor Downs,-37.728471,144.803944,Tae Kwon Do,,,,,70 Taylors Road Keilor Downs 3038,,"['Brimbank City Council', 'Brimbank City Council', 'Sports', 'Martial Arts']",,
299,Brimbank City Council,St Albans Secondary College,St Albans,-37.745805,144.807771,Tae Kwon Do,,,,,Main Road East St Albans 3021,,"['Brimbank City Council', 'Brimbank City Council', 'Sports', 'Martial Arts']",,
300,Brimbank City Council,AMF Bowling,Sunshine,-37.777859,144.82614000000000,Ten Pin Bowling,,,,,505 Ballarat Road Sunshine 3020,,"['Brimbank City Council', 'Sunshine', 'Sports']",,
301,Brimbank City Council,Our Lady's Tennis Club,Sunshine,-37.785182,144.84217900000000,Tennis (Outdoor),4.0,,,,Devonshire Road Sunshine 3020,,"['Brimbank City Council', 'Sunshine', 'Sports', 'Tennis']",,
302,Brimbank City Council,Overton Lea Reserve,Sydenham,-37.702497,144.763776,Tennis (Outdoor),4.0,,,,Overton Lea Boulevard Sydenham 3037,,"['Brimbank City Council', 'Sydenham', 'Sports', 'Tennis']",,
303,Port Phillip City Council,Lakeside Stadium,Albert Park,-37.840445,144.96496100000000,Athletics,1.0,Synthetic Running Track,,,Albert Road Drive Albert Park 3206,,"['Port Phillip City Council', 'Albert Park', 'Sports', 'Athletics']",,
304,Port Phillip City Council,Albert Park,Albert Park,-37.850701,144.970472,Australian Rules Football,,Grass,,,Aughtie Drive Albert Park 3206,,"['Port Phillip City Council', 'Albert Park', 'Sports', 'Football']",,
305,Port Phillip City Council,Elwood Reserve,Elwood,-37.889417,144.98658600000000,Australian Rules Football,1.0,Grass,5. Very Good,"Umpire/Officials, Unisex",Beach Road Drive Elwood 3184,,"['Port Phillip City Council', 'Elwood', 'Sports', 'Football']",,
306,Port Phillip City Council,J.L. Murphy Reserve,Port Melbourne,-37.833176,144.929121,Australian Rules Football,2.0,Grass,3. Average,"Male, Umpire/Officials",Williamstown Road Port Melbourne 3207,,"['Port Phillip City Council', 'Port Melbourne', 'Sports', 'Football']",,
307,Port Phillip City Council,Junction Oval,Albert Park,-37.855918,144.97999200000000,Australian Rules Football,1.0,Grass,,,Lakeside Drive Albert Park 3206,,"['Port Phillip City Council', 'Albert Park', 'Sports', 'Football']",,
308,Port Phillip City Council,North Port Oval/Port Melbourne Cricket Ground,Port Melbourne,-37.830887,144.941934,Australian Rules Football,1.0,Grass,2. Poor,"Male, Umpire/Officials",Williamstown Road Port Melbourne 3207,,"['Port Phillip City Council', 'Port Melbourne', 'Sports', 'Football']",,
309,Port Phillip City Council,Peanut Farm Reserve,St Kilda,-37.870111,144.978461,Australian Rules Football,1.0,Grass,2. Poor,Male,Spenser Street St Kilda 3182,,"['Port Phillip City Council', 'St Kilda', 'Sports', 'Football']",,
310,Port Phillip City Council,Melbourne Sports & Aquatic Centre,Albert Park,-37.842948,144.960718,Badminton,18.0,Wooden Gymnasium,,,Aughtie Drive Albert Park 3206,,"['Port Phillip City Council', 'Albert Park', 'Sports', 'Badminton']",,
311,Port Phillip City Council,R.F. Julier Reserve,Port Melbourne,-37.837687,144.922502,Basketball,,,2. Poor,,Dunstan Parade Port Melbourne 3207,,"['Port Phillip City Council', 'Port Melbourne', 'Sports', 'Basketball']",,
312,Port Phillip City Council,St Kilda Police & Citizens Youth Club,St Kilda,-37.865218,144.989122,Basketball,1.0,Wooden Gymnasium,2. Poor,"Female, Male",179 Inkerman Street St Kilda 3182,,"['Port Phillip City Council', 'St Kilda', 'Sports', 'Basketball']",,
313,Port Phillip City Council,Albert Reserve,Albert Park,-37.845315,144.977688,Cricket,1.0,Turf Pitch,,,Roy Street Albert Park 3206,,"['Port Phillip City Council', 'Albert Park', 'Sports', 'Cricket']",,
314,Port Phillip City Council,Alma Park Reserve,St Kilda East,-37.860199,144.995726,Cricket,1.0,Synthetic Pitch,1. Very Poor,Male,Westbury Street St Kilda East 3182,,"['Port Phillip City Council', 'St Kilda East', 'Sports', 'Cricket']",,
315,Port Phillip City Council,Lagoon Reserve,Port Melbourne,-37.841252,144.94405700000000,Cricket,1.0,Synthetic Pitch,2. Poor,Male,Graham Street Port Melbourne 3207,,"['Port Phillip City Council', 'Port Melbourne', 'Sports', 'Cricket']",,
316,Port Phillip City Council,Albert Park Public Golf Course,Albert Park,-37.847567,144.975537,Golf,1.0,18 Hole Course - Public,,,Lakeside Drive Albert Park 3206,,"['Port Phillip City Council', 'Albert Park', 'Sports', 'Golf']",,
317,Port Phillip City Council,Fishermen's Bend Gymnastics Club,Port Melbourne,-37.837504,144.915745,Gymnastics,,,,,Dunstan Parade Port Melbourne 3207,,"['Port Phillip City Council', 'Port Melbourne', 'Sports', 'Gymnastics']",,
318,Port Phillip City Council,Kids in Motion,Port Melbourne,-37.830389,144.921453,Gymnastics,,,,,11 Rocklea Drive Port Melbourne 3207,,"['Port Phillip City Council', 'Port Melbourne', 'Sports', 'Gymnastics']",,
319,Port Phillip City Council,Melbourne Grammar School,Port Melbourne,-37.834444,144.914699,Hockey,1.0,Artificial Turf,,,Howe Parade Port Melbourne 3207,,"['Port Phillip City Council', 'Port Melbourne', 'Sports', 'Hockey']",,
320,Port Phillip City Council,Albert Park Bowls Club,Albert Park,-37.839581,144.95372,Lawn Bowls,1.0,,3. Average,,St Vincent Place North Albert Park 3206,,"['Port Phillip City Council', 'Albert Park', 'Sports']",,
321,Port Phillip City Council,Middle Park Bowling Club,Middle Park,-37.848568,144.964629,Lawn Bowls,3.0,Grass,,,Canterbury Road Middle Park 3206,,"['Port Phillip City Council', 'Middle Park', 'Sports']",,
322,Port Phillip City Council,Port Melbourne Bowls Club,Port Melbourne,-37.83479000000000,144.94376600000000,Lawn Bowls,2.0,Grass,3. Average,"Female, Male",Spring Street West Port Melbourne 3207,,"['Port Phillip City Council', 'Port Melbourne', 'Sports']",,
323,Port Phillip City Council,St Kilda Bowls Club,St Kilda,-37.858762,144.978349,Lawn Bowls,1.0,Grass,,,Fitzroy Street St Kilda 3182,,"['Port Phillip City Council', 'St Kilda', 'Sports']",,
324,Port Phillip City Council,Albert Park Indoor Sports Centre,Albert Park,-37.850701,144.970472,Netball (Indoor),,Wooden Gymnasium,,,Aughtie Drive Albert Park 3206,,"['Port Phillip City Council', 'Albert Park', 'Sports', 'Netball']",,
325,Port Phillip City Council,Albert Park Yacht Club,South Melbourne,-37.840991,144.967123,Sailing,,,,,5 Aquatic Drive South Melbourne 3205,,"['Port Phillip City Council', 'South Melbourne', 'Sports', 'Sailing']",,
326,Port Phillip City Council,Albert Sailing Club,South Melbourne,-37.839805,144.967048,Sailing,,,,,Aquatic Drive South Melbourne 3205,,"['Port Phillip City Council', 'South Melbourne', 'Sports', 'Sailing']",,
327,Port Phillip City Council,Port Melbourne Yacht Club,Port Melbourne,-37.84359,144.93731200000000,Sailing,,,,,Beach Road Port Melbourne 3207,,"['Port Phillip City Council', 'Port Melbourne', 'Sports', 'Sailing']",,
328,Port Phillip City Council,Royal Melbourne Yacht Squadron,Stkilda,-37.863899,144.97071500000000,Sailing,,,,,Pier Road Stkilda 3182,,"['Port Phillip City Council', 'Stkilda', 'Sports', 'Sailing']",,
329,Port Phillip City Council,Port Melbourne Skate Park/Graham Street Skate Park,Port Melbourne,-37.837841,144.937104,Skating,1.0,,2. Poor,,Station Street Port Melbourne 3207,,"['Port Phillip City Council', 'Port Melbourne', 'Sports', 'Skating']",,
330,Port Phillip City Council,Elwood Life Saving Club,Elwood,-37.889075,144.983999,Surf Life Saving,,,,,Elwood Foreshore Elwood 3184,,"['Port Phillip City Council', 'Elwood', 'Sports', 'Surf']",,
331,Port Phillip City Council,Port Melbourne Life Saving Club,Port Melbourne,-37.845108,144.942028,Surf Life Saving,,,,,38 Beaconsfield Parade Port Melbourne 3207,,"['Port Phillip City Council', 'Port Melbourne', 'Sports', 'Surf']",,
332,Port Phillip City Council,Sandridge Life Saving Club,Port Melbourne,-37.839712,144.916893,Surf Life Saving,,,,,The Boulevard Port Melbourne 3207,,"['Port Phillip City Council', 'Port Melbourne', 'Sports', 'Surf']",,
333,Port Phillip City Council,South Melbourne Life Saving Club,Albert Park,-37.847119,144.946524,Surf Life Saving,,,,,Beaconsfield Parade Albert Park 3206,,"['Port Phillip City Council', 'Albert Park', 'Sports', 'Surf']",,
334,Port Phillip City Council,St Kilda Life Saving Club,St Kilda,-37.86792,144.97456100000000,Surf Life Saving,,,,,43 Jacka Boulevard St Kilda 3182,,"['Port Phillip City Council', 'St Kilda', 'Sports', 'Surf']",,
335,Port Phillip City Council,State Bank Pavillion,Albert Park,-37.846266,144.964973,Table Tennis,,,,,Aughtie Drive Albert Park 3206,,"['Port Phillip City Council', 'Albert Park', 'Sports', 'Table Tennis']",,
336,Port Phillip City Council,Albert Park Lawn Tennis Club (St Vincent Gardens),Albert Park,-37.839581,144.95372,Tennis (Outdoor),2.0,Artificial Turf,5. Very Good,,St Vincent Place North Albert Park 3206,,"['Port Phillip City Council', 'Albert Park', 'Sports', 'Tennis']",,
337,Port Phillip City Council,Morris Reserve,Port Melbourne,-37.837237,144.935247,Tennis (Outdoor),3.0,Hard Court,2. Poor,"Female, Male",Swallow Street Port Melbourne 3207,,"['Port Phillip City Council', 'Port Melbourne', 'Sports', 'Tennis']",,
338,Port Phillip City Council,Teamfit South,Southbank,-37.83108,144.954069,Fitness / Gymnasium Workouts,1.0,,,,75 City Road Southbank,,"['Port Phillip City Council', 'Southbank', 'Sports', 'Gymnasium']",,
339,Darebin City Council,Fairfield Park Canoe Facility,Fairfield,-37.78437,145.004222,Canoeing,,,2. Poor,,Heidelberg Street Fairfield,,"['Darebin City Council', 'Fairfield', 'Sports', 'Canoeing']",,
340,Darebin City Council,Fitnessland Gym,Fairfield,-37.779009,145.025109,Fitness / Gymnasium Workouts,1.0,,,,212 Grange Road Fairfield 3078,,"['Darebin City Council', 'Fairfield', 'Sports', 'Gymnasium']",,
341,Darebin City Council,Jetts Fitness Bundoora,Bundoora,-37.700019,145.058126,Fitness / Gymnasium Workouts,,,,,584 Grimshaw Street Bundoora 3083,,"['Darebin City Council', 'Bundoora', 'Sports', 'Gymnasium']",,
342,Darebin City Council,Athletique Health Club Preston,Preston,-37.754375,145.020615,Aerobics,,,,,Albert Street Preston 3072,,"['Darebin City Council', 'Preston', 'Sports', 'Aerobics']",,
343,Darebin City Council,Fernwood Women's Health Club Preston,Preston,-37.750068,145.02988100000000,Aerobics,,,,,1/70 Chifley Drive Preston 3072,,"['Darebin City Council', 'Preston', 'Sports', 'Aerobics']",,
344,Darebin City Council,Genesis Fitness Club Preston,Preston,-37.74697000000000,145.0205,Aerobics,,,,,140 Bell Street Preston 3072,,"['Darebin City Council', 'Preston', 'Sports', 'Aerobics']",,
345,Darebin City Council,Northcote Aquatic & Recreation Centre,Northcote,-37.769021,145.012581,Aerobics,,,4. Good,"Female, Male",180 Victoria Road Northcote 3070,,"['Darebin City Council', 'Northcote', 'Sports', 'Aerobics']",,
346,Darebin City Council,Reservoir Leisure Centre,Reservoir,-37.716632,145.018316,Aerobics,2.0,,4. Good,"Female, Male",Cuthbert Road Reservoir 3073,,"['Darebin City Council', 'Reservoir', 'Sports', 'Aerobics']",,
347,Darebin City Council,The Fitness Club,Keon Park,-37.695615,145.012,Aerobics,,,,,49 Johnson Street Keon Park 3073,,"['Darebin City Council', 'Keon Park', 'Sports', 'Aerobics']",,
348,Darebin City Council,Edwardes Lake Park,Reservoir,-37.714426,144.993643,Athletics,,,4. Good,"Female, Male",Griffiths Street Reservoir 3073,,"['Darebin City Council', 'Reservoir', 'Sports', 'Athletics']",,
349,Darebin City Council,A H Capp Reserve,Preston,-37.749556,144.982529,Australian Rules Football,1.0,Grass,5. Very Good,"Female, Male, Umpire/Officials",196 Miller Street Preston 3072,,"['Darebin City Council', 'Preston', 'Sports', 'Football']",,
350,Darebin City Council,Bill Lawry Park (Northcote Park),Northcote,-37.782918,145.004754,Australian Rules Football,1.0,Grass,4. Good,"Female, Male, Umpire/Officials",Westgarth Street Northcote 3070,,"['Darebin City Council', 'Northcote', 'Sports', 'Football']",,
351,Darebin City Council,Crispe Park,Reservoir,-37.72203,144.997474,Australian Rules Football,1.0,Grass,5. Very Good,"Female, Male, Umpire/Officials",Coleman Crescent Reservoir 3073,,"['Darebin City Council', 'Reservoir', 'Sports', 'Football']",,
352,Darebin City Council,J C Donath Reserve,Reservoir,-37.69972,145.014616,Australian Rules Football,1.0,Grass,4. Good,"Female, Male, Umpire/Officials",Harmer Street Reservoir 3073,,"['Darebin City Council', 'Reservoir', 'Sports', 'Football']",,
353,Darebin City Council,J E Moore Reserve,Reservoir,-37.71701,144.99385800000000,Australian Rules Football,2.0,Grass,3. Average,"Male, Umpire/Officials",Spratling Street Reservoir 3073,,"['Darebin City Council', 'Reservoir', 'Sports', 'Football']",,
354,Darebin City Council,John Hall Reserve,Kingsbury,-37.712695,145.026415,Australian Rules Football,1.0,Grass,4. Good,"Female, Male, Umpire/Officials",Dunne Street Kingsbury 3083,,"['Darebin City Council', 'Kingsbury', 'Sports', 'Football']",,
355,Darebin City Council,McDonnell Park,Northcote,-37.76945900000000,145.01553700000000,Australian Rules Football,2.0,Grass,4. Good,"Female, Male, Umpire/Officials",Clifton Street Northcote 3070,,"['Darebin City Council', 'Northcote', 'Sports', 'Football']",,
356,Darebin City Council,Pitcher Park,Fairfield,-37.773624,145.028359,Australian Rules Football,1.0,Grass,3. Average,"Female, Male, Umpire/Officials",Seperation Street Fairfield 3078,,"['Darebin City Council', 'Fairfield', 'Sports', 'Football']",,
357,Darebin City Council,Preston City Oval,Preston,-37.741399,145.00104300000000,Australian Rules Football,1.0,Grass,4. Good,"Female, Male, Umpire/Officials",Cramer Street Preston 3072,,"['Darebin City Council', 'Preston', 'Sports', 'Football']",,
358,Darebin City Council,Sir Doug Nicholls Reserve,Thornbury,-37.752729,144.996406,Australian Rules Football,1.0,Grass,3. Average,"Female, Male, Umpire/Officials",Watt Street Thornbury 3071,,"['Darebin City Council', 'Thornbury', 'Sports', 'Football']",,
359,Darebin City Council,T W Blake Reserve,Preston,-37.741627,145.025251,Australian Rules Football,1.0,Grass,3. Average,"Female, Male, Umpire/Officials",Murray Road Preston 3072,,"['Darebin City Council', 'Preston', 'Sports', 'Football']",,
360,Darebin City Council,W H Robinson Reserve,West Preston,-37.748012,144.982024,Australian Rules Football,1.0,Grass,3. Average,"Female, Male, Umpire/Officials",Halwyn Crescent West Preston 3072,,"['Darebin City Council', 'West Preston', 'Sports', 'Football']",,
361,Darebin City Council,WR Ruthven Reserve,Preston,-37.733472,145.023488,Australian Rules Football,1.0,Grass,2. Poor,"Female, Male, Umpire/Officials",Albert Street Preston 3072,,"['Darebin City Council', 'Preston', 'Sports', 'Football']",,
362,Darebin City Council,Darebin Community Sports Stadium,Reservoir,-37.721381,145.030317,Badminton,,,5. Very Good,"Female, Male, Umpire/Officials",857 Plenty Road Reservoir 3073,,"['Darebin City Council', 'Reservoir', 'Sports', 'Badminton']",,
363,Darebin City Council,Merri Park Baseball,Northcote,-37.772682,144.98951600000000,Baseball,1.0,,3. Average,"Female, Male, Umpire/Officials",St Georges Road Northcote 3070,,"['Darebin City Council', 'Northcote', 'Sports', 'Baseball']",,
364,Darebin City Council,Judith Scott Memorial Reserve,Kingsbury,-37.718987,145.034413,Basketball,1.0,,4. Good,"Female, Male, Umpire/Officials",Browning Street Kingsbury 3083,,"['Darebin City Council', 'Kingsbury', 'Sports', 'Basketball']",,
365,Darebin City Council,Keon Park Youth Club & Community Hall,Keon Park,-37.701083,145.020205,Basketball,,,4. Good,"Female, Male",Dole Avenue Keon Park 3073,,"['Darebin City Council', 'Keon Park', 'Sports', 'Basketball']",,
366,Darebin City Council,Northcote Indoor Sports,Thornbury,-37.7595,145.0275,Beach Volleyball,,,,,338 Mansfield street Thornbury 3071,,"['Darebin City Council', 'Thornbury', 'Sports']",,
367,Darebin City Council,All Nations Park,Northcote,-37.76716,145.002751,BMX,,,4. Good,Unisex,Dennis Street Northcote 3070,,"['Darebin City Council', 'Northcote', 'Sports']",,
368,Darebin City Council,Northside Boxing Gym,Preston,-37.74,145.00800000000000,Boxing,,,,,25-27 Townhall Avenue Preston 3072,,"['Darebin City Council', 'Preston', 'Sports', 'Boxing']",,
369,Darebin City Council,Darebin International Sports Centre,Thornbury,-37.764668,145.02318800000000,Carpet Bowls,1.0,,5. Very Good,"Female, Male, Umpire/Officials",281 Darebin Road Thornbury 3071,,"['Darebin City Council', 'Thornbury', 'Sports']",,
370,Darebin City Council,Bundoora Park Oval,Bundoora,-37.706831,145.049992,Cricket,1.0,Synthetic Pitch,3. Average,"Female, Male, Umpire/Officials",Snake Gully Drive Bundoora 3083,,"['Darebin City Council', 'Bundoora', 'Sports', 'Cricket']",,
371,Darebin City Council,C T Barling Reserve,Bundoora,-37.722819,145.032694,Cricket,3.0,Synthetic Pitch,1. Very Poor,"Female, Male, Umpire/Officials",Plenty Road Bundoora 3083,,"['Darebin City Council', 'Bundoora', 'Sports', 'Cricket']",,
372,Darebin City Council,H L T Oulten Reserve,Preston,-37.74866,145.020144,Cricket,2.0,Synthetic Pitch,4. Good,"Female, Male, Umpire/Officials",Albert Street Preston 3072,,"['Darebin City Council', 'Preston', 'Sports', 'Cricket']",,
373,Darebin City Council,H P Zwar Reserve,Preston,-37.741479,144.996053,Cricket,1.0,Synthetic Pitch,4. Good,"Female, Male, Umpire/Officials",Jessie Street Preston 3072,,"['Darebin City Council', 'Preston', 'Sports', 'Cricket']",,
374,Darebin City Council,Hayes Park,Thornbury,-37.757127,145.017878,Cricket,2.0,Synthetic Pitch,3. Average,"Female, Male, Umpire/Officials",Flinders Street Thornbury 3071,,"['Darebin City Council', 'Thornbury', 'Sports', 'Cricket']",,
375,Darebin City Council,I W Dole Reserve,Reservoir,-37.701694,145.019655,Cricket,1.0,Synthetic Pitch,3. Average,"Female, Male, Umpire/Officials",Dole Avenue Reservoir 3073,,"['Darebin City Council', 'Reservoir', 'Sports', 'Cricket']",,
376,Darebin City Council,L E Cotchin Reserve,Reservoir,-37.697187,144.988672,Cricket,1.0,Synthetic Pitch,4. Good,"Female, Male, Umpire/Officials",Massey Avenue Reservoir 3073,,"['Darebin City Council', 'Reservoir', 'Sports', 'Cricket']",,
377,Darebin City Council,Mayer Park,Thornbury,-37.758733,144.98685,Cricket,1.0,Synthetic Pitch,4. Good,"Female, Male, Umpire/Officials",Normanby Avenue Thornbury 3071,,"['Darebin City Council', 'Thornbury', 'Sports', 'Cricket']",,
378,Darebin City Council,TW Andrews Park,Preston,-37.716296,145.017419,Cycling,1.0,Outdoor Velodrome,,,Fordham Street Preston 3073,,"['Darebin City Council', 'Preston', 'Sports', 'Cycling']",,
379,Darebin City Council,Bundoora Park Golf Course,Bundoora,-37.705282,145.037219,Golf,,18 Hole Course - Public,4. Good,"Female, Male",1069 Plenty Road Bundoora 3083,,"['Darebin City Council', 'Bundoora', 'Sports', 'Golf']",,
380,Darebin City Council,Northcote Golf Course,Thornbury,-37.758619,144.984296,Golf,,9 Hole Course - Public,3. Average,,143 Normanby Avenue Thornbury 3071,,"['Darebin City Council', 'Thornbury', 'Sports', 'Golf']",,
381,Darebin City Council,Strathallan Golf Course,Bundoora,-37.711376,145.058575,Golf,,9 Hole Course - Public,2. Poor,"Female, Male, Umpire/Officials",100 Main Drive Bundoora 3083,,"['Darebin City Council', 'Bundoora', 'Sports', 'Golf']",,
382,Darebin City Council,Kaygees Gym Club,Northcote,-37.76514,144.985044,Gymnastics,,,,,177 Beavers Road Northcote 3070,,"['Darebin City Council', 'Northcote', 'Sports', 'Gymnastics']",,
383,Darebin City Council,Twisters Gymnastic Club (Santa Maria College),Northcote,-37.772532,145.000563,Gymnastics,,,,,50 Shepparton Street Northcote 3070,,"['Darebin City Council', 'Northcote', 'Sports', 'Gymnastics']",,
384,Darebin City Council,KP Hardiman Reserve,Reservoir,-37.721355,145.031251,Hockey,1.0,,2. Poor,"Female, Male, Umpire/Officials",Plenty Road Reservoir 3073,,"['Darebin City Council', 'Reservoir', 'Sports', 'Hockey']",,
385,Darebin City Council,Puckhanders Indoor Stadium,Reservoir,-37.732892,145.037522,Inline Hockey,,,,,Blake / Davis Street Reservoir 3073,,"['Darebin City Council', 'Reservoir', 'Sports', 'Hockey']",,
386,Darebin City Council,Darebin City Bowls Club,Thornbury,-37.765386,145.022806,Lawn Bowls,4.0,,,,273-281 Darebin Road Thornbury 3071,,"['Darebin City Council', 'Thornbury', 'Sports']",,
387,Darebin City Council,Fairfield Bowling Club,Fairfield,-37.774821,145.018043,Lawn Bowls,,,,,125 Gillies Street Fairfield 3078,,"['Darebin City Council', 'Fairfield', 'Sports']",,
388,Darebin City Council,John Cain Memorial Park,Thornbury,-37.763128,145.024003,Lawn Bowls,,,4. Good,"Female, Male, Umpire/Officials",Darebin Road Thornbury 3071,,"['Darebin City Council', 'Thornbury', 'Sports']",,
389,Darebin City Council,Kingsbury Bowls Club,Kingsbury,-37.715668,145.023492,Lawn Bowls,3.0,,4. Good,"Female, Male, Umpire/Officials",Dunne Street Kingsbury 3083,,"['Darebin City Council', 'Kingsbury', 'Sports']",,
390,Darebin City Council,Preston - Reservoir Bowls Club,Reservoir,-37.711894,144.993891,Lawn Bowls,4.0,,,,75 Leamington Street Reservoir 3073,,"['Darebin City Council', 'Reservoir', 'Sports']",,
391,Darebin City Council,Thornbury Bowls Club,Thornbury,-37.758906,144.998573,Lawn Bowls,,,,,27 Balantyne Street Thornbury 3071,,"['Darebin City Council', 'Thornbury', 'Sports']",,
392,Darebin City Council,Lakeview Tennis Club,Reservoir,-37.711987,144.99176700000000,Netball,3.0,,,,Leamington Street Reservoir 3073,,"['Darebin City Council', 'Reservoir', 'Sports', 'Netball']",,
393,Darebin City Council,B T Connors Reserve,Reservoir,-37.705333,144.981807,Soccer,4.0,Grass,4. Good,"Female, Male, Umpire/Officials",Broadhurst Avenue Reservoir 3073,,"['Darebin City Council', 'Reservoir', 'Sports', 'Soccer']",,
394,Darebin City Council,DR Atkinson Reserve,Reservoir,-37.702782,145.026796,Soccer,1.0,,3. Average,"Female, Male, Umpire/Officials",Argyle Street Reservoir 3073,,"['Darebin City Council', 'Reservoir', 'Sports', 'Soccer']",,
395,Darebin City Council,G H Mott Reserve,Preston,-37.744019,145.00997900000000,Soccer,1.0,Grass,2. Poor,"Female, Male",Bell Street Preston 3072,,"['Darebin City Council', 'Preston', 'Sports', 'Soccer']",,
396,Darebin City Council,Dunstan Park Tennis,Preston,-37.731145,144.98689300000000,Tennis (Outdoor),3.0,,,,Dunstan Street Preston 3072,,"['Darebin City Council', 'Preston', 'Sports', 'Tennis']",,
397,Darebin City Council,GE Robinson Park,Reservoir,-37.72533,145.005512,Tennis (Outdoor),3.0,Clay,3. Average,"Female, Male, Umpire/Officials",High Street Reservoir 3073,,"['Darebin City Council', 'Reservoir', 'Sports', 'Tennis']",,
398,Darebin City Council,St Josephs Tennis Courts,Northcote,-37.773851,144.996374,Tennis (Outdoor),2.0,,,,Westbourne Grove Northcote 3070,,"['Darebin City Council', 'Northcote', 'Sports', 'Tennis']",,
399,Darebin City Council,T.A Cochrane Reserve,Preston,-37.748424,145.008709,Tennis (Outdoor),4.0,Clay,3. Average,"Female, Male, Umpire/Officials",Collier Street Preston 3072,,"['Darebin City Council', 'Preston', 'Sports', 'Tennis']",,
400,Darebin City Council,Thornbury Church of Christ Tennis Club,Thornbury,-37.763038,144.997151,Tennis (Outdoor),2.0,Clay,,,Spencer Street Thornbury 3071,,"['Darebin City Council', 'Thornbury', 'Sports', 'Tennis']",,
401,Hobsons Bay City Council,Westside Indoor Sports,Altona North,-37.833056,144.825247,AFL (Indoor),,,,,Grieve Parade Altona North 3025,,"['Hobsons Bay City Council', 'Altona North', 'Sports', 'AFL']",,
402,Hobsons Bay City Council,G.K Nevitt Athletics Facility,Altona,-37.859713,144.82616000000000,Athletics,1.0,Grass Running Track,2. Poor,"Female, Male",Sugargum Drive Altona 3018,,"['Hobsons Bay City Council', 'Altona', 'Sports', 'Athletics']",,
403,Hobsons Bay City Council,Newport Park Reserve,Newport,-37.845292,144.895175,Athletics,1.0,Synthetic Running Track,4. Good,"Female, Male",Douglas Parade Newport 3015,,"['Hobsons Bay City Council', 'Newport', 'Sports', 'Athletics']",,
404,Hobsons Bay City Council,A.B Shaw Reserve,Altona Meadows,-37.86490300000000,144.782029,Australian Rules Football,3.0,Grass,4. Good,"Male, Umpire/Officials",2 Hall Avenue Altona Meadows 3028,,"['Hobsons Bay City Council', 'Altona Meadows', 'Sports', 'Football']",,
405,Hobsons Bay City Council,Altona Green Park,Altona Meadows,-37.887654,144.782078,Australian Rules Football,2.0,Grass,4. Good,Unisex,252 Victoria Street Altona Meadows 3028,,"['Hobsons Bay City Council', 'Altona Meadows', 'Sports', 'Football']",,
406,Hobsons Bay City Council,Bayside College Williamstown,Williamstown,-37.859193,144.884943,Australian Rules Football,2.0,Grass,,,83 Bayview Street Williamstown 3016,,"['Hobsons Bay City Council', 'Williamstown', 'Sports', 'Football']",,
407,Hobsons Bay City Council,Bruce Comben Reserve,Altona Meadows,-37.87221,144.76673800000000,Australian Rules Football,3.0,Grass,3. Average,Male,Central Avenue Altona Meadows 3028,,"['Hobsons Bay City Council', 'Altona Meadows', 'Sports', 'Football']",,
408,Hobsons Bay City Council,Croft Reserve,Altona North,-37.827492,144.833396,Australian Rules Football,2.0,Grass,5. Very Good,"Male, Umpire/Officials",Blackshaws Road Altona North 3025,,"['Hobsons Bay City Council', 'Altona North', 'Sports', 'Football']",,
409,Hobsons Bay City Council,Donald McLean Reserve,Spotswood,-37.826626,144.883924,Australian Rules Football,2.0,Grass,4. Good,"Male, Umpire/Officials",The Avenue Spotswood 3015,,"['Hobsons Bay City Council', 'Spotswood', 'Sports', 'Football']",,
410,Hobsons Bay City Council,Fearon Reserve,Williamstown,-37.867227,144.895021,Australian Rules Football,2.0,Grass,3. Average,"Male, Umpire/Officials","Williamstown Lacrosse Club, Garden Street, Williamstown, City of Hobsons Bay, Victoria, 3016, Australia",,"['Hobsons Bay City Council', 'Williamstown', 'Sports', 'Football']",,
411,Hobsons Bay City Council,J.K Grant Reserve,Altona,-37.862122,144.826574,Australian Rules Football,3.0,Grass,3. Average,"Umpire/Officials, Unisex",Bluegum Drive Altona 3018,,"['Hobsons Bay City Council', 'Altona', 'Sports', 'Football']",,
412,Hobsons Bay City Council,Newport Football Ground,Newport,-37.845216,144.88071400000000,Australian Rules Football,1.0,Grass,5. Very Good,"Male, Umpire/Officials",Market Street Newport 3015,,"['Hobsons Bay City Council', 'Newport', 'Sports', 'Football']",,
413,Hobsons Bay City Council,Williamstown Cricket Ground,Williamstown,-37.871338,144.90358800000000,Australian Rules Football,1.0,Grass,5. Very Good,"Male, Umpire/Officials",Morris Street Williamstown 3016,,"['Hobsons Bay City Council', 'Williamstown', 'Sports', 'Football']",,
414,Hobsons Bay City Council,Altona Badminton Centre,Altona North,-37.840715,144.858582,Badminton,12.0,Wooden Flooring,4. Good,"Female, Male, Umpire/Officials",Mason Street Altona North 3025,,"['Hobsons Bay City Council', 'Altona North', 'Sports', 'Badminton']",,
415,Hobsons Bay City Council,Greenwich Reserve,Williamstown,-37.846978,144.895834,Baseball,1.0,Grass,,,100 The Strand Williamstown 3016,,"['Hobsons Bay City Council', 'Williamstown', 'Sports', 'Baseball']",,
416,Hobsons Bay City Council,K.C White Reserve,Williamstown North,-37.853926,144.877322,Baseball,2.0,,4. Good,"Female, Male, Umpire/Officials",120 Park Crescent Williamstown North 3016,,"['Hobsons Bay City Council', 'Williamstown North', 'Sports', 'Baseball']",,
417,Hobsons Bay City Council,State Baseball Softball Centre (Melbourne Ballpark),Altona,-37.86073,144.78004100000000,Baseball,2.0,,,,Merton Street Altona 3018,,"['Hobsons Bay City Council', 'Altona', 'Sports', 'Baseball']",,
418,Hobsons Bay City Council,Altona Sports Centre,Altona Meadows,-37.876617,144.797079,Basketball,6.0,Wooden Gymnasium,5. Very Good,"Female, Male, Unisex",Queens Street Altona Meadows 3028,,"['Hobsons Bay City Council', 'Altona Meadows', 'Sports', 'Basketball']",,
419,Hobsons Bay City Council,Armstrong Reserve,Newport,-37.846977,144.888263,Basketball,1.0,Asphalt,,,79 Wilkins Street Newport 3015,,"['Hobsons Bay City Council', 'Newport', 'Sports', 'Basketball']",,
420,Hobsons Bay City Council,Lifestyle Williamstown (Newport Park Leisure Centre),Newport,-37.844784,144.895244,Basketball,1.0,Wooden Gymnasium,3. Average,"Female, Male",North Road Newport 3015,,"['Hobsons Bay City Council', 'Newport', 'Sports', 'Basketball']",,
421,Hobsons Bay City Council,Maltese Bocce Recreation and Social Club,Altona North,-37.833623,144.837453,Bocce,,,4. Good,,50 Marsh Street Altona North 3025,,"['Hobsons Bay City Council', 'Altona North', 'Sports']",,
422,Hobsons Bay City Council,Seabrook Community Centre Indoor Bowls,Seabrook,-37.885766,144.758946,Carpet Bowls,2.0,,5. Very Good,"Female, Male",15 Truganina Avenue Seabrook 3028,,"['Hobsons Bay City Council', 'Seabrook', 'Sports']",,
423,Hobsons Bay City Council,A.H Ford Reserve,Altona,-37.86079,144.8136,Cricket,1.0,Synthetic Pitch,,,Belmar Avenue Altona 3018,,"['Hobsons Bay City Council', 'Altona', 'Sports', 'Cricket']",,
424,Hobsons Bay City Council,A.W Bond Reserve,Altona North,-37.82761,144.845419,Cricket,1.0,Synthetic Pitch,2. Poor,"Male, Umpire/Officials",21 Duosa Road Altona North 3025,,"['Hobsons Bay City Council', 'Altona North', 'Sports', 'Cricket']",,
425,Hobsons Bay City Council,Altona P-9 School,Altona,-37.862136,144.816706,Cricket,1.0,Synthetic Pitch,,,Grieve Street Altona 3018,,"['Hobsons Bay City Council', 'Altona', 'Sports', 'Cricket']",,
426,Hobsons Bay City Council,Altona Sports Club Reserve,Altona,-37.863318,144.849793,Cricket,1.0,Synthetic Pitch,,,Altona Road Altona 3018,,"['Hobsons Bay City Council', 'Altona', 'Sports', 'Cricket']",,
427,Hobsons Bay City Council,Bayview Reserve,Williamstown,-37.866441,144.884794,Cricket,1.0,Synthetic Pitch,,,1 Bayview Street Williamstown 3016,,"['Hobsons Bay City Council', 'Williamstown', 'Sports', 'Cricket']",,
428,Hobsons Bay City Council,Digman Reserve,Newport,-37.839526,144.89014700000000,Cricket,2.0,Synthetic Pitch,1. Very Poor,Male,395 Hobson Street Newport 3015,,"['Hobsons Bay City Council', 'Newport', 'Sports', 'Cricket']",,
429,Hobsons Bay City Council,Edwards Reserve,South Kingsville,-37.82761,144.870236,Cricket,1.0,Synthetic Pitch,3. Average,Male,Brunel Street South Kingsville 3015,,"['Hobsons Bay City Council', 'South Kingsville', 'Sports', 'Cricket']",,
430,Hobsons Bay City Council,F Rush Reserve,Altona,-37.855348,144.817878,Cricket,1.0,Synthetic Pitch,,,Brooke Drive Altona 3018,,"['Hobsons Bay City Council', 'Altona', 'Sports', 'Cricket']",,
431,Hobsons Bay City Council,Hatt Reserve,Williamstown,-37.869716,144.89591300000000,Cricket,1.0,Synthetic Pitch,,,31 The Esplanade Williamstown 3016,,"['Hobsons Bay City Council', 'Williamstown', 'Sports', 'Cricket']",,
432,Hobsons Bay City Council,J.T Gray Reserve,Williamstown,-37.856187,144.863994,Cricket,4.0,Synthetic Pitch,2. Poor,"Male, Umpire/Officials",Kororoit Road Williamstown 3016,,"['Hobsons Bay City Council', 'Williamstown', 'Sports', 'Cricket']",,
433,Hobsons Bay City Council,Langshaw Reserve,Altona North,-37.83620300000000,144.8517,Cricket,1.0,Turf Pitch,5. Very Good,"Male, Umpire/Officials",Marion Street Altona North 3025,,"['Hobsons Bay City Council', 'Altona North', 'Sports', 'Cricket']",,
434,Hobsons Bay City Council,Robertson Reserve,Williamstown,-37.864726,144.90116900000000,Cricket,1.0,Synthetic Pitch,,,Cole Street Williamstown 3016,,"['Hobsons Bay City Council', 'Williamstown', 'Sports', 'Cricket']",,
435,Hobsons Bay City Council,Williamstown Croquet Club,Williamstown,-37.859695,144.88969,Croquet,2.0,Grass,4. Good,"Female, Male",104 Victoria Street Williamstown 3016,,"['Hobsons Bay City Council', 'Williamstown', 'Sports', 'Croquet']",,
436,Hobsons Bay City Council,Quarry Reserve,Williamstown North,-37.852002,144.875114,Equestrian,1.0,,2. Poor,,131 Park Crescent Williamstown North 3016,,"['Hobsons Bay City Council', 'Williamstown North', 'Sports']",,
437,Hobsons Bay City Council,Bayfit Leisure Centre,Altona North,-37.839618,144.85575500000000,Fitness / Gymnasium Workouts,,,5. Very Good,"Female, Male, Umpire/Officials",257 Mason Street Altona North 3025,,"['Hobsons Bay City Council', 'Altona North', 'Sports', 'Gymnasium']",,
438,Hobsons Bay City Council,Beach House Health & Fitness Williamstown,Williamstown,-37.853924,144.8585,Fitness / Gymnasium Workouts,,,,,388-390 Kororoit Creek Road Williamstown 3016,,"['Hobsons Bay City Council', 'Williamstown', 'Sports', 'Gymnasium']",,
439,Hobsons Bay City Council,Contours Altona North,Altona North,-37.832222,144.861995,Fitness / Gymnasium Workouts,,,,,2/216 Blackshaws Road Altona North 3025,,"['Hobsons Bay City Council', 'Altona North', 'Sports', 'Gymnasium']",,
440,Hobsons Bay City Council,Curves Altona,Altona North,-37.834798,144.846,Fitness / Gymnasium Workouts,,,,,31 Borrack Square Altona North 3025,,"['Hobsons Bay City Council', 'Altona North', 'Sports', 'Gymnasium']",,
441,Hobsons Bay City Council,Fernwood Altona,Altona North,-37.827695,144.847772,Fitness / Gymnasium Workouts,,,,,124-134 Millers Road Altona North 3025,,"['Hobsons Bay City Council', 'Altona North', 'Sports', 'Gymnasium']",,
442,Hobsons Bay City Council,Inspiration Health and Fitness,Altona North,-37.832222,144.861995,Fitness / Gymnasium Workouts,,,,,6/216 Blackshaws Road Altona North 3025,,"['Hobsons Bay City Council', 'Altona North', 'Sports', 'Gymnasium']",,
443,Hobsons Bay City Council,Laverton Swim and Fitness Centre,Laverton,-37.856729,144.77453400000000,Fitness / Gymnasium Workouts,,,2. Poor,"Female, Male",Jennings Street Laverton 3028,,"['Hobsons Bay City Council', 'Laverton', 'Sports', 'Gymnasium']",,
444,Hobsons Bay City Council,Peyote Gym Williamstown,Williamstown,-37.859291,144.898802,Fitness / Gymnasium Workouts,,,,,1/65 Ferguson Street Williamstown 3016,,"['Hobsons Bay City Council', 'Williamstown', 'Sports', 'Gymnasium']",,
445,Hobsons Bay City Council,Run With Me Fitness Club Altona,Altona,-37.865405,144.830678,Fitness / Gymnasium Workouts,,,,,117 Pier Street Altona 3018,,"['Hobsons Bay City Council', 'Altona', 'Sports', 'Gymnasium']",,
446,Hobsons Bay City Council,Sweeney's Swim & Fitness Centre,Altona,-37.8655,144.83100000000000,Fitness / Gymnasium Workouts,,,,,116 Pier Street Altona 3018,,"['Hobsons Bay City Council', 'Altona', 'Sports', 'Gymnasium']",,
447,Hobsons Bay City Council,Westgate Health and Fitness Club Altona North,Altona North,-37.833056,144.825247,Fitness / Gymnasium Workouts,,,,,499 Grieve Parade Altona North 3025,,"['Hobsons Bay City Council', 'Altona North', 'Sports', 'Gymnasium']",,
448,Hobsons Bay City Council,Altona Lakes Golf Course,Altona North,-37.842231,144.85907,Golf,1.0,9 Hole Course - Public,3. Average,,Mason Street Altona North 3025,,"['Hobsons Bay City Council', 'Altona North', 'Sports', 'Golf']",,
449,Hobsons Bay City Council,Kooringal Golf Club,Altona,-37.873873,144.811386,Golf,1.0,18 Hole Course - Private,,,Queen Street Altona 3018,,"['Hobsons Bay City Council', 'Altona', 'Sports', 'Golf']",,
450,Hobsons Bay City Council,Westgate Golf Course,Spotswood,-37.826635,144.885518,Golf,1.0,9 Hole Course - Public,2. Poor,,Creek Street Spotswood 3015,,"['Hobsons Bay City Council', 'Spotswood', 'Sports', 'Golf']",,
451,Hobsons Bay City Council,Lifestyle for Kids,Williamstown,-37.850069,144.875652,Gymnastics,,,,,193 Champion Road Williamstown 3016,,"['Hobsons Bay City Council', 'Williamstown', 'Sports', 'Gymnastics']",,
452,Hobsons Bay City Council,Paisley Park Soccer Complex,Altona,-37.842008,144.857751,Lacrosse,4.0,Grass,4. Good,"Male, Umpire/Officials",Mason Street Altona 3018,,"['Hobsons Bay City Council', 'Altona', 'Sports', 'Lacrosse']",,
